codeAiot;raisonSociale;adresse1;adresse2;adresse3;codePostal;codeInsee;commune;codeNaf;numeroSiret;coordonneeX;coordonneeY;systemeCoordonnees;longitude;latitude;bovins;porcs;volailles;carriere;eolienne;industrie;prioriteNationale;statutSeveso;ied;serviceAiot;etatActivite;regimeVigueur;url;structure;etablissement;libelle_complet;nom_commune;epci_siren;epci_nom
0053320787;SAS CHATEAU MILORD;1, Mylord;;;33420;33194;Grézillac;01;79815498500013;443816;6417458;2154;-0.240952;44.808954;false;false;false;false;false;false;false;;false;DDPP 33;;Autres régimes;https://www.georisques.gouv.fr/risques/installations/donnees/details/0053320787;SAS CHATEAU MILORD;;SAS CHATEAU MILORD;Grézillac;243301454;CC Castillon/Pujols
0053325662;LES DOMAINES HENRI MARTIN;Château Gloria;;;33250;33423;Saint-Julien-Beychevelle;01;30461504000017;405995;6456801;2154;-0.742327;45.147788;false;false;false;false;false;false;false;;false;DDPP 33;;Autres régimes;https://www.georisques.gouv.fr/risques/installations/donnees/details/0053325662;LES DOMAINES HENRI MARTIN;;LES DOMAINES HENRI MARTIN;Saint-Julien-Beychevelle;200069995;CC Médoc Coeur de Presqu'île
0005207593;SMITOM Centre Médoc;Mézi;;;33480;33022;Avensan;;;404138;6444251;2154;-0.758331;45.034122;false;false;false;false;false;true;false;Non Seveso;false;DREAL NA;En fin d'exploitation;Autorisation;https://www.georisques.gouv.fr/risques/installations/donnees/details/0005207593;SMITOM Centre Médoc;;SMITOM Centre Médoc;Avensan;243301389;CC Médullienne
0005201342;MANUSTOCK - Le Teich;rue de la côte d'Argent;;;33470;33527;Le Teich;;;381147;6400921;2154;-1.021884;44.634289;false;false;false;false;false;true;false;Non Seveso;false;DREAL NA;En fin d'exploitation;Enregistrement;https://www.georisques.gouv.fr/risques/installations/donnees/details/0005201342;MANUSTOCK;Le Teich;MANUSTOCK — Le Teich;Le Teich;243300563;CA Bassin d'Arcachon Sud (COBAS)
0005208202;LAFARGE GRANULATS (LG);Barban Est;;;33650;33501;Saucats;68;56211088202144;413808;6396487;2154;-0.607964;44.608618;false;false;false;true;false;false;false;Non Seveso;false;DREAL NA;En exploitation avec titre;Autorisation;https://www.georisques.gouv.fr/risques/installations/donnees/details/0005208202;LAFARGE GRANULATS (LG);Saucats;LAFARGE GRANULATS (LG) — Saucats;Saucats;243301264;CC de Montesquieu
0005213872;JML BATIMENTS - ISDI;Lieu dit Paluets';;;33190;33254;Loupiac-de-la-Réole;;40418700700012;457901;6388593;2154;-0.048855;44.554342;false;false;false;false;false;true;false;Non Seveso;false;DREAL NA;En exploitation avec titre;Enregistrement;https://www.georisques.gouv.fr/risques/installations/donnees/details/0005213872;JML BATIMENTS;ISDI;JML BATIMENTS — ISDI;Loupiac-de-la-Réole;200044394;CC du Réolais en Sud Gironde
0003106689;TRIFFAUT Sylvain;32 Route de Lussac;;;33910;33393;Saint-Denis-de-Pile;;37830591600017;448602;6437053;2154;-0.190482;44.986985;false;false;false;false;false;false;false;;false;DREAL NA;;Autres régimes;https://www.georisques.gouv.fr/risques/installations/donnees/details/0003106689;TRIFFAUT Sylvain;;TRIFFAUT Sylvain;Saint-Denis-de-Pile;200070092;CA du Libournais
0053320839;CHATEAU HAUT BERGEY;69 COURS GAMBETTA;;;33850;33238;Léognan;01;32919773500023;414175;6409548;2154;-0.610868;44.726231;false;false;false;false;false;false;false;;false;DDPP 33;;Autres régimes;https://www.georisques.gouv.fr/risques/installations/donnees/details/0053320839;CHATEAU HAUT BERGEY;;CHATEAU HAUT BERGEY;Léognan;243301264;CC de Montesquieu
0003102473;GUICHON Ludivine;Lieu-dit le Petit Hil Route Départementale n°116E;Parcelle 49 section A;;33720;33197;Guillos;68;49276266100014;420993;6389388;2154;-0.513526;44.547691;false;false;false;false;false;false;false;;false;DREAL NA;;Non ICPE;https://www.georisques.gouv.fr/risques/installations/donnees/details/0003102473;GUICHON Ludivine;;GUICHON Ludivine;Guillos;200069581;CC Convergence Garonne
0003106229;SOS-AUTO (SARL);ZA PONT DE COTET NORD;;;33620;33439;Saint-Mariens;;44337866600012;431683;6452394;2154;-0.413353;45.118624;false;false;false;false;false;false;false;;false;DREAL NA;;Non ICPE;https://www.georisques.gouv.fr/risques/installations/donnees/details/0003106229;SOS-AUTO (SARL);;SOS-AUTO (SARL);Saint-Mariens;243301181;CC Latitude Nord Gironde
0053315331;LA HAUTE COUTURE DU VIN BY JEAN GUYON;18, ROUTE DE BY;;;33340;33038;Bégadan;01;35256551900050;397441;6482311;2154;-0.866927;45.373511;false;false;false;false;false;false;false;;false;DDPP 33;;Autres régimes;https://www.georisques.gouv.fr/risques/installations/donnees/details/0053315331;LA HAUTE COUTURE DU VIN BY JEAN GUYON;;LA HAUTE COUTURE DU VIN BY JEAN GUYON;Bégadan;200069995;CC Médoc Coeur de Presqu'île
0005208943;SOCIETE COOPERATIVE DE VINIFICATION;;;;33220;33242;Les Lèves-et-Thoumeyragues;;;477835;6412285;2154;0.191354;44.774144;false;false;false;false;false;true;false;Non Seveso;false;DDPP 33;En fin d'exploitation;Enregistrement;https://www.georisques.gouv.fr/risques/installations/donnees/details/0005208943;SOCIETE COOPERATIVE DE VINIFICATION;;SOCIETE COOPERATIVE DE VINIFICATION;Les Lèves-et-Thoumeyragues;243301371;CC du Pays Foyen
0005207770;CANTE Jean-Pierre;lieu-dit Moras;;;33650;33213;La Brède;;;418389;6404524;2154;-0.554849;44.682768;false;false;false;false;false;true;false;Non Seveso;false;DREAL NA;En fin d'exploitation;Enregistrement;https://www.georisques.gouv.fr/risques/installations/donnees/details/0005207770;CANTE Jean-Pierre;;CANTE Jean-Pierre;La Brède;243301264;CC de Montesquieu
0005211648;MARTAS (SA);6 avenue du Colonel Bourgoing;;;33127;33273;Martignas-sur-Jalle;47;34509726500010;401369;6423341;2154;-0.780743;44.844881;false;false;false;false;false;false;false;;false;DREAL NA;;Autres régimes;https://www.georisques.gouv.fr/risques/installations/donnees/details/0005211648;MARTAS (SA);;MARTAS (SA);Martignas-sur-Jalle;243300316;Bordeaux Métropole
0005214233;SAR OCEAN (a supprimer);;;;33130;33039;Bègles;;;420649;6418683;2154;-0.534353;44.811027;false;false;false;false;false;true;false;Non Seveso;false;DDPP 33;En fin d'exploitation;Enregistrement;https://www.georisques.gouv.fr/risques/installations/donnees/details/0005214233;SAR OCEAN (a supprimer);;SAR OCEAN (a supprimer);Bègles;243300316;Bordeaux Métropole
0053315879;SOCIETE CIVILE DU CHATEAU LESTAGE;CHATEAU LESTAGE;FONREAUD;;33480;33248;Listrac-Médoc;;32262248100016;399740;6449025;2154;-0.817041;45.075158;false;false;false;false;false;false;false;;false;DDPP 33;;Autres régimes;https://www.georisques.gouv.fr/risques/installations/donnees/details/0053315879;SOCIETE CIVILE DU CHATEAU LESTAGE;;SOCIETE CIVILE DU CHATEAU LESTAGE;Listrac-Médoc;243301389;CC Médullienne
0003102095;SCEA DES VIGNOBLES GASSIES GAUTEY;LIEU DIT LE MASSON;;;33420;33298;Moulon;01;35171958800011;445434;6423345;2154;-0.223545;44.862508;false;false;false;false;false;false;false;;false;DDPP 33;;Autres régimes;https://www.georisques.gouv.fr/risques/installations/donnees/details/0003102095;SCEA DES VIGNOBLES GASSIES GAUTEY;;SCEA DES VIGNOBLES GASSIES GAUTEY;Moulon;200070092;CA du Libournais
0005211986;EARL DES VIGNOBLES ZAUSA;CHATEAU POUYANNE;;;33720;33076;Budos;01;35183561600019;430556;6387366;2154;-0.392157;44.533269;false;false;false;false;false;false;false;;false;DDPP 33;;Autres régimes;https://www.georisques.gouv.fr/risques/installations/donnees/details/0005211986;EARL DES VIGNOBLES ZAUSA;;EARL DES VIGNOBLES ZAUSA;Budos;200069581;CC Convergence Garonne
0100296986;MERIGNAC CENTRE ENERGIES - Réseau de chaleur de Mérignac Centre Energies;AVENUE DU TRUC;;;33700;33281;Mérignac;35;89322383400019;411581;6423161;2154;-0.651539;44.847588;false;false;false;false;false;false;false;;false;DREAL NA;;Non ICPE;https://www.georisques.gouv.fr/risques/installations/donnees/details/0100296986;MERIGNAC CENTRE ENERGIES;Réseau de chaleur de Mérignac Centre Energies;MERIGNAC CENTRE ENERGIES — Réseau de chaleur de Mérignac Centre Energies;Mérignac;243300316;Bordeaux Métropole
0005208292;LAFARGE GRANULATS (LG) - IC;Jard des Porchères;;;33230;33166;Le Fieu;08;56211088201575;460190;6442716;2154;-0.04634;45.042053;false;false;false;false;false;true;false;Non Seveso;false;DREAL NA;En exploitation avec titre;Enregistrement;https://www.georisques.gouv.fr/risques/installations/donnees/details/0005208292;LAFARGE GRANULATS (LG);IC — Le Fieu;LAFARGE GRANULATS (LG) — IC — Le Fieu;Le Fieu;200070092;CA du Libournais
0005211060;FACEO FM;25 Avenue Eiffel;;;33600;33318;Pessac;70;33860698100268;409595;6417092;2154;-0.673075;44.792177;false;false;false;false;false;false;false;;false;DREAL NA;;Autres régimes;https://www.georisques.gouv.fr/risques/installations/donnees/details/0005211060;FACEO FM;;FACEO FM;Pessac;243300316;Bordeaux Métropole
0053318668;SCEA CHATEAU HAUT GAUSSENS;;LD  LES GAUSSENS;;33240;33542;Vérac;;42987901800019;437069;6438413;2154;-0.337406;44.994928;false;false;false;false;false;false;false;;false;DDPP 33;;Autres régimes;https://www.georisques.gouv.fr/risques/installations/donnees/details/0053318668;SCEA CHATEAU HAUT GAUSSENS;;SCEA CHATEAU HAUT GAUSSENS;Vérac;243301397;CC du Fronsadais
0005208906;AQUITAINE VEHICULES INDUSTRIELS;Zac de Fieuzal;;;33520;33075;Bruges;;30946788400073;415969;6427126;2154;-0.598348;44.885062;false;false;false;false;false;false;false;;false;DREAL NA;;Autres régimes;https://www.georisques.gouv.fr/risques/installations/donnees/details/0005208906;AQUITAINE VEHICULES INDUSTRIELS;;AQUITAINE VEHICULES INDUSTRIELS;Bruges;243300316;Bordeaux Métropole
0053324941;FRUIDOR;MIN de Brienne;quai de paludate;;33000;33063;Bordeaux;;56208974800254;417958;6423461;2154;-0.571086;44.852911;false;false;false;false;false;true;false;Non Seveso;false;DDPP 33;En exploitation avec titre;Enregistrement;https://www.georisques.gouv.fr/risques/installations/donnees/details/0053324941;FRUIDOR;;FRUIDOR;Bordeaux;243300316;Bordeaux Métropole
0053321067;GAEC RECONNU CHATEAU DES PEYRICHONS;LD LES PEYRICHONS;;;33220;33354;Riocaud;01;38475385100011;478674;6409506;2154;0.203195;44.749408;false;false;false;false;false;false;false;;false;DDPP 33;;Autres régimes;https://www.georisques.gouv.fr/risques/installations/donnees/details/0053321067;GAEC RECONNU CHATEAU DES PEYRICHONS;;GAEC RECONNU CHATEAU DES PEYRICHONS;Riocaud;243301371;CC du Pays Foyen
0100002096;Société Départementale des Carrières;193 avenue Marcel Dassault;;;33700;33281;Mérignac;08;69198036100089;405003;6423155;2154;-0.734694;44.844765;false;false;false;false;false;false;false;;false;DREAL NA;;Non ICPE;https://www.georisques.gouv.fr/risques/installations/donnees/details/0100002096;Société Départementale des Carrières;;Société Départementale des Carrières;Mérignac;243300316;Bordeaux Métropole
0005212741;BORDEAUX METROPOLE;Station d'épuration de Sabarèges;Rue de Sabarèges;;33440;33003;Ambarès-et-Lagrave;84;24330031600011;423422;6431497;2154;-0.50651;44.927394;false;false;false;false;false;true;false;Non Seveso;false;DREAL NA;En exploitation avec titre;Enregistrement;https://www.georisques.gouv.fr/risques/installations/donnees/details/0005212741;BORDEAUX METROPOLE;Ambarès-et-Lagrave;BORDEAUX METROPOLE — Ambarès-et-Lagrave;Ambarès-et-Lagrave;243300316;Bordeaux Métropole
0053326697;GOYON FREDERIC;DOMAINE DE TOURELOURE;21 CHE DE LAROCHE;;33370;33554;Yvrac;01;43843488800022;425807;6426620;2154;-0.473594;44.884476;false;false;false;false;false;false;false;;false;DDPP 33;;Autres régimes;https://www.georisques.gouv.fr/risques/installations/donnees/details/0053326697;GOYON FREDERIC;;GOYON FREDERIC;Yvrac;243301249;CC Les Rives de la Laurence
0005207555;MAIRIE - Cussac Fort Médoc;Moulin de Beyron;;;33460;33146;Cussac-Fort-Médoc;;21330146800012;406660;6452995;2154;-0.731587;45.11384;false;false;false;false;false;true;false;Non Seveso;false;DREAL NA;En fin d'exploitation;Autorisation;https://www.georisques.gouv.fr/risques/installations/donnees/details/0005207555;MAIRIE - Cussac Fort Médoc;;MAIRIE - Cussac Fort Médoc;Cussac-Fort-Médoc;243301447;CC Médoc Estuaire
0003103877;EARL VIGNOBLES JEAN MARIE BOULDY;CHATEAU BELLEGRAVE;;;33500;33328;Pomerol;01;42085860700013;447354;6430872;2154;-0.203123;44.930924;false;false;false;false;false;false;false;;false;DDPP 33;;Autres régimes;https://www.georisques.gouv.fr/risques/installations/donnees/details/0003103877;EARL VIGNOBLES JEAN MARIE BOULDY;;EARL VIGNOBLES JEAN MARIE BOULDY;Pomerol;200070092;CA du Libournais
0005208531;TRONEL Armes;311 route de Toulouse;;;33140;33550;Villenave-d'Ornon;;44113269300017;418474;6414422;2154;-0.559406;44.771824;false;false;false;false;false;false;false;;false;DREAL NA;;Non ICPE;https://www.georisques.gouv.fr/risques/installations/donnees/details/0005208531;TRONEL Armes;;TRONEL Armes;Villenave-d'Ornon;243300316;Bordeaux Métropole
0003100057;EARL VIGNOBLES DARRICARRERE;LIEU DIT RIDEL;;;33710;33067;Bourg;01;80361531900016;423498;6443064;2154;-0.512066;45.031467;false;false;false;false;false;false;false;;false;DDPP 33;;Autres régimes;https://www.georisques.gouv.fr/risques/installations/donnees/details/0003100057;EARL VIGNOBLES DARRICARRERE;Bourg;EARL VIGNOBLES DARRICARRERE — Bourg;Bourg;243301223;CC du Grand Cubzaguais
0005203501;SIBELCO FRANCE;Ballion-sud, Le Gouil Peyruc, Litche-sud;;;33830;33042;Belin-Béliet;;68200032800240;401978;6387105;2154;-0.751267;44.519288;false;false;false;true;false;false;false;Non Seveso;false;DREAL NA;En exploitation avec titre;Autorisation;https://www.georisques.gouv.fr/risques/installations/donnees/details/0005203501;SIBELCO FRANCE;Belin-Béliet — Ballion-sud, Le Gouil Peyruc, Litche-sud;SIBELCO FRANCE — Belin-Béliet — Ballion-sud, Le Gouil Peyruc, Litche-sud;Belin-Béliet;243301405;CC du Val de l'Eyre
0005200999;LAFARGE BETON SUD-OUEST SAS;Le Galus Nord;Impasse Félix Nadar;;33689;33281;Mérignac;23;46620326200012;409790;6423217;2154;-0.674215;44.847344;false;false;false;false;false;false;false;;false;DREAL NA;;Autres régimes;https://www.georisques.gouv.fr/risques/installations/donnees/details/0005200999;LAFARGE BETON SUD-OUEST SAS;;LAFARGE BETON SUD-OUEST SAS;Mérignac;243300316;Bordeaux Métropole
0053326552;EARL BERARD;;BERARD;;33760;33523;Targon;01;33350114600018;442218;6409858;2154;-0.257182;44.739996;false;false;false;false;false;false;false;;false;DDPP 33;;Autres régimes;https://www.georisques.gouv.fr/risques/installations/donnees/details/0053326552;EARL BERARD;;EARL BERARD;Targon;200069599;CC Rurales de l'Entre-Deux-Mers
0053326595;EARL VIGNOBLES STEPHAN MOTUT;CHATEAU REIGNAC DE TIZAC;;;33240;33415;Saint-Gervais;01;41374854200011;428263;6441301;2154;-0.450642;45.0175;false;false;false;false;false;false;false;;false;DDPP 33;;Autres régimes;https://www.georisques.gouv.fr/risques/installations/donnees/details/0053326595;EARL VIGNOBLES STEPHAN MOTUT;;EARL VIGNOBLES STEPHAN MOTUT;Saint-Gervais;243301223;CC du Grand Cubzaguais
0005213526;SARL CHATEAU PEBY-FAUGERES;;;;33330;33396;Saint-Étienne-de-Lisse;01;52913370400013;455713;6424982;2154;-0.094331;44.880936;false;false;false;false;false;false;false;;false;DDPP 33;;Non ICPE;https://www.georisques.gouv.fr/risques/installations/donnees/details/0005213526;SARL CHATEAU PEBY-FAUGERES;;SARL CHATEAU PEBY-FAUGERES;Saint-Étienne-de-Lisse;200035533;CC du Grand Saint Emilionnais
0053324991;PERROT KASSANDRA;8 JOFFRET;;;33133;33179;Galgon;01;53205833600019;441942;6437631;2154;-0.275213;44.98973;false;false;false;false;false;false;false;;false;DDPP 33;;Non ICPE;https://www.georisques.gouv.fr/risques/installations/donnees/details/0053324991;PERROT KASSANDRA;;PERROT KASSANDRA;Galgon;243301397;CC du Fronsadais
0003100791;CANTILLAC JEAN PIERRE - ISDI;Chemin des Carmes;;;33370;33330;Pompignac;01;41274402100012;429148;6422922;2154;-0.429289;44.852527;false;false;false;false;false;true;false;Non Seveso;false;DREAL NA;En fin d'exploitation;Enregistrement;https://www.georisques.gouv.fr/risques/installations/donnees/details/0003100791;CANTILLAC JEAN PIERRE;ISDI;CANTILLAC JEAN PIERRE — ISDI;Pompignac;243301355;CC les Coteaux Bordelais
0005207295;VEOLIA PROPRETE;La Rafette;;;33450;33433;Saint-Loubès;38;46420237300104;427753;6431434;2154;-0.451637;44.928545;false;false;false;false;false;true;false;Non Seveso;false;DREAL NA;En fin d'exploitation;Autorisation;https://www.georisques.gouv.fr/risques/installations/donnees/details/0005207295;VEOLIA PROPRETE;;VEOLIA PROPRETE;Saint-Loubès;243301249;CC Les Rives de la Laurence
0005200782;CASTAGNE FRERES & Cie;Choudet;1 Tuilerie;;33840;33095;Captieux;16;78186395600012;440374;6361325;2154;-0.255189;44.302778;false;false;false;false;false;true;false;Non Seveso;false;DREAL NA;En fin d'exploitation;Enregistrement;https://www.georisques.gouv.fr/risques/installations/donnees/details/0005200782;CASTAGNE FRERES & Cie;;CASTAGNE FRERES & Cie;Captieux;200043982;CC du Bazadais
0053317650;EARL JULLION;;Beauséjour;;33390;33047;Berson;;37954974400017;421123;6453456;2154;-0.54812;45.123987;false;false;false;false;false;false;false;;false;DDPP 33;;Autres régimes;https://www.georisques.gouv.fr/risques/installations/donnees/details/0053317650;EARL JULLION;;EARL JULLION;Berson;200023794;CC de Blaye
0003105231;M et Mme SAINT-AUBIN Dylan et Valérie;19 Dauzanet;;;33760;33258;Lugasson;;79811043300017;450126;6411557;2154;-0.158227;44.758171;false;false;false;false;false;false;false;;false;DDPP 33;;Non ICPE;https://www.georisques.gouv.fr/risques/installations/donnees/details/0003105231;M et Mme SAINT-AUBIN Dylan et Valérie;;M et Mme SAINT-AUBIN Dylan et Valérie;Lugasson;200069599;CC Rurales de l'Entre-Deux-Mers
0053318281;MAISON LE STAR VIGNOBLES & CHATEAUX;ZAE de L'Arbalestrier;BP43;;33220;33324;Pineuilh;46;59725050500034;481902;6419445;2154;0.239564;44.839858;false;false;false;false;false;true;false;Non Seveso;false;DDPP 33;En fin d'exploitation;Enregistrement;https://www.georisques.gouv.fr/risques/installations/donnees/details/0053318281;MAISON LE STAR VIGNOBLES & CHATEAUX;;MAISON LE STAR VIGNOBLES & CHATEAUX;Pineuilh;243301371;CC du Pays Foyen
0005213303;EARL VIGNOBLE LAFOI;168 RUE DE LA CROIX DE LAMBERT;;;33910;33387;Saint-Ciers-d'Abzac;01;33808287800020;441497;6441278;2154;-0.282777;45.022372;false;false;false;false;false;false;false;;false;DDPP 33;;Autres régimes;https://www.georisques.gouv.fr/risques/installations/donnees/details/0005213303;EARL VIGNOBLE LAFOI;;EARL VIGNOBLE LAFOI;Saint-Ciers-d'Abzac;200070092;CA du Libournais
0005212442;B.A TP;8 Lieu dit Le Caud;;;33390;33047;Berson;43;82500722200011;418870;6452708;2154;-0.576315;45.116344;false;false;false;false;false;false;false;;false;DREAL NA;;Non ICPE;https://www.georisques.gouv.fr/risques/installations/donnees/details/0005212442;B.A TP;;B.A TP;Berson;200023794;CC de Blaye
0005200868;SIRECH HOSTIER;Zone Industrielle;;;33360;33234;Latresne;;45520004800029;423611;6416336;2154;-0.495614;44.791104;false;false;false;false;false;false;false;;false;DREAL NA;;Autres régimes;https://www.georisques.gouv.fr/risques/installations/donnees/details/0005200868;SIRECH HOSTIER;;SIRECH HOSTIER;Latresne;243301439;CC des Portes de l'Entre-Deux-Mers
0005200420;SMURFIT WESTROCK  CELLULOSE DU PIN;Usine de Facture;Allée des Fougères;;33380;33051;Biganos;17;57214219800033;384738;6400130;2154;-0.976164;44.628814;false;false;false;false;false;true;true;Non Seveso;true;DREAL NA;En exploitation avec titre;Autorisation;https://www.georisques.gouv.fr/risques/installations/donnees/details/0005200420;SMURFIT WESTROCK  CELLULOSE DU PIN;;SMURFIT WESTROCK  CELLULOSE DU PIN;Biganos;243301504;CA du Bassin d'Arcachon Nord (COBAN)
0005201164;CENTRE DE RECUPERATION DU LIBOURNAIS;Les Vergnes;;;33330;33394;Saint-Émilion;38;34183141000012;447451;6426701;2154;-0.199753;44.893437;false;false;false;false;false;true;false;Non Seveso;false;DREAL NA;En exploitation avec titre;Enregistrement;https://www.georisques.gouv.fr/risques/installations/donnees/details/0005201164;CENTRE DE RECUPERATION DU LIBOURNAIS;Saint-Émilion;CENTRE DE RECUPERATION DU LIBOURNAIS — Saint-Émilion;Saint-Émilion;200035533;CC du Grand Saint Emilionnais
0003105482;ANALYTICAL STANDART SOLUTIONS (A2S);295 avenue de Boulac;;;33127;33422;Saint-Jean-d'Illac;72;53088990600034;399075;6419279;2154;-0.807264;44.80736;false;false;false;false;false;false;false;;false;DREAL NA;;Non ICPE;https://www.georisques.gouv.fr/risques/installations/donnees/details/0003105482;ANALYTICAL STANDART SOLUTIONS (A2S);;ANALYTICAL STANDART SOLUTIONS (A2S);Saint-Jean-d'Illac;243301165;CC Jalle-Eau-Bourde
0005200416;TRUITE ARGENTIERE;moulin de la cassadotte;;;33380;33051;Biganos;;78177681000017;387426;6401138;2154;-0.942953;44.63909;false;false;false;false;false;true;false;Non Seveso;false;DDPP 33;En exploitation avec titre;Autorisation;https://www.georisques.gouv.fr/risques/installations/donnees/details/0005200416;TRUITE ARGENTIERE;;TRUITE ARGENTIERE;Biganos;243301504;CA du Bassin d'Arcachon Nord (COBAN)
0005200298;BARRAS ALAIN;au lieu-dit Le Bardon;;;33500;33015;Arveyres;;33839868800014;442295;6426539;2154;-0.26492;44.890079;false;false;false;false;false;true;false;Non Seveso;false;DREAL NA;En fin d'exploitation;Enregistrement;https://www.georisques.gouv.fr/risques/installations/donnees/details/0005200298;BARRAS ALAIN;;BARRAS ALAIN;Arveyres;200070092;CA du Libournais
0053325711;SCEA DES VIGNOBLES JEAN SORGE;CHATEAU DEYON VALENTIN;;;33460;33517;Soussans;01;39408135000016;409723;6445752;2154;-0.688379;45.049992;false;false;false;false;false;false;false;;false;DDPP 33;;Autres régimes;https://www.georisques.gouv.fr/risques/installations/donnees/details/0053325711;SCEA DES VIGNOBLES JEAN SORGE;;SCEA DES VIGNOBLES JEAN SORGE;Soussans;243301447;CC Médoc Estuaire
0053316122;SCEV DUVERGNON;La Plagne;;;33570;33342;Puisseguin;;40054878000016;459059;6432467;2154;-0.055657;44.949449;false;false;false;false;false;false;false;;false;DDPP 33;;Autres régimes;https://www.georisques.gouv.fr/risques/installations/donnees/details/0053316122;SCEV DUVERGNON;;SCEV DUVERGNON;Puisseguin;200035533;CC du Grand Saint Emilionnais
0005206508;LE CAM C.;77 Avenue de Marcheprime;;;33380;33555;Marcheprime;65;46910802100012;395631;6407366;2154;-0.843438;44.698731;false;false;false;false;false;false;false;;false;DREAL NA;;Autres régimes;https://www.georisques.gouv.fr/risques/installations/donnees/details/0005206508;LE CAM C.;;LE CAM C.;Marcheprime;243301504;CA du Bassin d'Arcachon Nord (COBAN)
0005208957;APPLICATION METALLISATION PEINTURE;Lieu-dit Les Places;;;33640;33007;Arbanats;70;48003395000019;430738;6403122;2154;-0.3984;44.675052;false;false;false;false;false;true;false;Non Seveso;false;DREAL NA;En fin d'exploitation;Autorisation;https://www.georisques.gouv.fr/risques/installations/donnees/details/0005208957;APPLICATION METALLISATION PEINTURE;;APPLICATION METALLISATION PEINTURE;Arbanats;200069581;CC Convergence Garonne
0005208050;MAIRIE - Latresne;Port de l'Homme;;;33360;33234;Latresne;;;422817;6415626;2154;-0.505244;44.784401;false;false;false;false;false;true;false;Non Seveso;false;DREAL NA;En fin d'exploitation;Autorisation;https://www.georisques.gouv.fr/risques/installations/donnees/details/0005208050;MAIRIE - Latresne;;MAIRIE - Latresne;Latresne;243301439;CC des Portes de l'Entre-Deux-Mers
0100056253;REY'SCHARK;8 RUE LEON MORIN;;;33600;33318;PESSAC;96;80815245800028;410100;6417438;2154;-0.6669;44.7955;false;false;false;false;false;false;false;;false;DREAL NA;;Non ICPE;https://www.georisques.gouv.fr/risques/installations/donnees/details/0100056253;REY'SCHARK;;REY'SCHARK;Pessac;243300316;Bordeaux Métropole
0005206006;SEMA;Les Abatilles;157 Boulevard de la Côte d'Argent;;33120;33009;Arcachon;11;35180609600019;367871;6403236;2154;-1.190583;44.64889;false;false;false;false;false;true;false;Non Seveso;false;DREAL NA;En exploitation avec titre;Enregistrement;https://www.georisques.gouv.fr/risques/installations/donnees/details/0005206006;SEMA;;SEMA;Arcachon;243300563;CA Bassin d'Arcachon Sud (COBAS)
0005212434;EARL DU MOREAU;7 LE BOURG;;;33890;33133;Coubeyrac;01;50809440600016;467231;6413416;2154;0.056885;44.780843;false;false;false;false;false;false;false;;false;DDPP 33;;Autres régimes;https://www.georisques.gouv.fr/risques/installations/donnees/details/0005212434;EARL DU MOREAU;;EARL DU MOREAU;Coubeyrac;243301454;CC Castillon/Pujols
0005201298;PENA ENVIRONNEMENT (ex MAGNEN SAS);L'oustalot;;;33710;33500;Samonac;;33231850000011;418918;6447924;2154;-0.572953;45.073333;false;false;false;false;false;false;false;;false;DREAL NA;;Non ICPE;https://www.georisques.gouv.fr/risques/installations/donnees/details/0005201298;PENA ENVIRONNEMENT (ex MAGNEN SAS);;PENA ENVIRONNEMENT (ex MAGNEN SAS);Samonac;200023794;CC de Blaye
0005208816;SOCIETE NETTO-PRESS;15, place des Martyrs de la Résistance;;;33000;33063;Bordeaux;;;417958;6423461;2154;-0.571086;44.852911;false;false;false;false;false;false;false;;false;DREAL NA;;Non ICPE;https://www.georisques.gouv.fr/risques/installations/donnees/details/0005208816;SOCIETE NETTO-PRESS;;SOCIETE NETTO-PRESS;Bordeaux;243300316;Bordeaux Métropole
0005206798;SICTOM SUD GIRONDE (ex langonnais);Z.A. de Dumez;;;33210;33227;Langon;38;25330057800015;442700;6387814;2154;-0.239677;44.541888;false;false;false;false;false;true;false;Non Seveso;false;DREAL NA;En exploitation avec titre;Enregistrement;https://www.georisques.gouv.fr/risques/installations/donnees/details/0005206798;SICTOM SUD GIRONDE (ex langonnais);;SICTOM SUD GIRONDE (ex langonnais);Langon;200043974;CC du Sud Gironde
0005204787;GERLAND ROUTES-St Michel de Rieufret;Plateforme autoroutière ASF-Autor A62;ST MICHEL DE RIEUFRET;;33720;33452;Saint-Michel-de-Rieufret;45;38407762400011;427940;6397238;2154;-0.430446;44.621041;false;false;false;false;false;true;false;Non Seveso;false;DREAL NA;En fin d'exploitation;Enregistrement;https://www.georisques.gouv.fr/risques/installations/donnees/details/0005204787;GERLAND ROUTES-St Michel de Rieufret;;GERLAND ROUTES-St Michel de Rieufret;Saint-Michel-de-Rieufret;200069581;CC Convergence Garonne
0005207551;MAIRIE - Macau;Cantelaude;;;33460;33262;Macau;;21330262300011;414416;6440256;2154;-0.625628;45.002516;false;false;false;false;false;true;false;Non Seveso;false;DREAL NA;En fin d'exploitation;Autorisation;https://www.georisques.gouv.fr/risques/installations/donnees/details/0005207551;MAIRIE - Macau;;MAIRIE - Macau;Macau;243301447;CC Médoc Estuaire
0005200400;SIFA (sté  industrielle et forestiere );20 zi Règue;;;33830;33042;Belin-Béliet;;32978918400028;396590;6388379;2154;-0.819758;44.52842;false;false;false;false;false;true;false;Non Seveso;false;DREAL NA;En fin d'exploitation;Enregistrement;https://www.georisques.gouv.fr/risques/installations/donnees/details/0005200400;SIFA (sté  industrielle et forestiere );;SIFA (sté  industrielle et forestiere );Belin-Béliet;243301405;CC du Val de l'Eyre
0100033598;SARL ACTI FROID 33;433 CHE DE LEYSOTTE;;;33140;33550;VILLENAVE D'ORNON;28;39827562800038;416970;6416108;2154;-0.579361;44.786375;false;false;false;false;false;false;false;;false;DREAL NA;;Autres régimes;https://www.georisques.gouv.fr/risques/installations/donnees/details/0100033598;SARL ACTI FROID 33;;SARL ACTI FROID 33;Villenave-d'Ornon;243300316;Bordeaux Métropole
0053323899;ARNAUD CHATEAUX SAINT ESTEPHE ET POMYS;;Château Saint-Estèphe et Pomys;;33180;33395;Saint-Estèphe;01;32151204800018;403179;6467462;2154;-0.784616;45.242464;false;false;false;false;false;false;false;;false;DDPP 33;;Autres régimes;https://www.georisques.gouv.fr/risques/installations/donnees/details/0053323899;ARNAUD CHATEAUX SAINT ESTEPHE ET POMYS;;ARNAUD CHATEAUX SAINT ESTEPHE ET POMYS;Saint-Estèphe;200069995;CC Médoc Coeur de Presqu'île
0005208810;VIGNOBLES DUCOURT;18 ROUTE DE MONTIGNAC;LD LE HOURC;;33760;33215;Ladaux;01;40422594800011;442780;6405874;2154;-0.248019;44.704367;false;false;false;false;false;true;false;Non Seveso;false;DDPP 33;En exploitation avec titre;Enregistrement;https://www.georisques.gouv.fr/risques/installations/donnees/details/0005208810;VIGNOBLES DUCOURT;;VIGNOBLES DUCOURT;Ladaux;200069599;CC Rurales de l'Entre-Deux-Mers
0003106010;MADAME PETRAULT Virgine- TANTILLO;86 bis route de Lilaire;;;33830;33042;Belin-Béliet;;91995895900018;400189;6382881;2154;-0.771214;44.48054;false;false;false;false;false;false;false;;false;DDPP 33;;Autres régimes;https://www.georisques.gouv.fr/risques/installations/donnees/details/0003106010;MADAME PETRAULT Virgine- TANTILLO;;MADAME PETRAULT Virgine- TANTILLO;Belin-Béliet;243301405;CC du Val de l'Eyre
0100034991;SYNDIC COPROP RES LONGCHAMP 2000;281 AV DE LA LIBERATION;;;33110;33069;LE BOUSCAT;81;37749798700018;415390;6425148;2154;-0.60453;44.867034;false;false;false;false;false;false;false;;false;DREAL NA;;Non ICPE;https://www.georisques.gouv.fr/risques/installations/donnees/details/0100034991;SYNDIC COPROP RES LONGCHAMP 2000;;SYNDIC COPROP RES LONGCHAMP 2000;Le Bouscat;243300316;Bordeaux Métropole
0003105933;Chantier Métallurgique Pointe de Grave;ZI Trompeloup;;;33250;33314;Pauillac;33;33898659900029;404601;6462414;2154;-0.763446;45.197675;false;false;false;false;false;false;false;;false;DREAL NA;;Non ICPE;https://www.georisques.gouv.fr/risques/installations/donnees/details/0003105933;Chantier Métallurgique Pointe de Grave;;Chantier Métallurgique Pointe de Grave;Pauillac;200069995;CC Médoc Coeur de Presqu'île
0100289634;SELF BETON BIGANOS;178 AVENUE DE LA COTE DARGENT;;;33380;33051;Biganos;;95323850800014;386578;6401734;2154;-0.954008;44.644067;false;false;false;false;false;false;false;;false;DREAL NA;;Autres régimes;https://www.georisques.gouv.fr/risques/installations/donnees/details/0100289634;SELF BETON BIGANOS;;SELF BETON BIGANOS;Biganos;243301504;CA du Bassin d'Arcachon Nord (COBAN)
0003105066;DARTESS (ex NEMO INVEST SAS);Route d'Anglumeau;;;33450;33207;Izon;;42418554400063;435548;6429314;2154;-0.351789;44.912498;false;false;false;false;false;true;false;Non Seveso;false;DREAL NA;En exploitation avec titre;Enregistrement;https://www.georisques.gouv.fr/risques/installations/donnees/details/0003105066;DARTESS (ex NEMO INVEST SAS);;DARTESS (ex NEMO INVEST SAS);Izon;200070092;CA du Libournais
0005207644;LANGLOIS Bernard;40, Avenue Rambaud;;;33650;33213;La Brède;38;53753072700016;422608;6403058;2154;-0.500842;44.67128;false;false;false;false;false;false;false;;false;DREAL NA;;Non ICPE;https://www.georisques.gouv.fr/risques/installations/donnees/details/0005207644;LANGLOIS Bernard;;LANGLOIS Bernard;La Brède;243301264;CC de Montesquieu
0005200597;LA CORNUBIA;85, Quai de Brazza;B.P. N° 55;;33000;33063;Bordeaux;;45820176100012;420085;6423719;2154;-0.544338;44.856094;false;false;false;false;false;true;false;Non Seveso;false;DREAL NA;En fin d'exploitation;Autorisation;https://www.georisques.gouv.fr/risques/installations/donnees/details/0005200597;LA CORNUBIA;;LA CORNUBIA;Bordeaux;243300316;Bordeaux Métropole
0005207606;BORDEAUX METROPOLE;Le Bourgailh;2 Chemin de la Princesse;;33600;33318;Pessac;94;34868793000019;410463;6418835;2154;-0.663134;44.808216;false;false;false;false;false;false;false;;false;DREAL NA;;Autres régimes;https://www.georisques.gouv.fr/risques/installations/donnees/details/0005207606;BORDEAUX METROPOLE;Pessac — Le Bourgailh;BORDEAUX METROPOLE — Pessac — Le Bourgailh;Pessac;243300316;Bordeaux Métropole
0003106565;PEAB - PIECES ENTRETIEN AUTO BORDELAIS;Zone d'activité du Pot au Pin;5, Chemin Saint Raymond;;33611;33122;Cestas;;79002151300029;404900;6409700;2154;-0.72796;44.723719;false;false;false;false;false;false;false;;false;DREAL NA;;Autres régimes;https://www.georisques.gouv.fr/risques/installations/donnees/details/0003106565;PEAB;PIECES ENTRETIEN AUTO BORDELAIS;PEAB — PIECES ENTRETIEN AUTO BORDELAIS;Cestas;243301165;CC Jalle-Eau-Bourde
0005214106;SCEA GROMEL BEL AIR;3 chemin du Moulin à Vent;;;33240;33317;Périssac;01;40904234800014;438828;6441268;2154;-0.316626;45.021278;false;false;false;false;false;false;false;;false;DDPP 33;;Autres régimes;https://www.georisques.gouv.fr/risques/installations/donnees/details/0005214106;SCEA GROMEL BEL AIR;;SCEA GROMEL BEL AIR;Périssac;243301397;CC du Fronsadais
0053318431;CHATEAU MONDOT;CHATEAU TROPLONG MONDOT;CHATEAU MONDOT;;33330;33394;Saint-Émilion;;59725003400019;451984;6426001;2154;-0.142029;44.888778;false;false;false;false;false;false;false;;false;DDPP 33;;Autres régimes;https://www.georisques.gouv.fr/risques/installations/donnees/details/0053318431;CHATEAU MONDOT;;CHATEAU MONDOT;Saint-Émilion;200035533;CC du Grand Saint Emilionnais
0003106795;KOBA GLOBAL SERVICES;5 avenue de Guitayne;Parc d'activité Paola ZA du Courneau;;33610;33090;Canéjan;;41752507800131;410872;6413183;2154;-0.65466;44.757555;false;false;false;false;false;false;false;;false;DREAL NA;;Autres régimes;https://www.georisques.gouv.fr/risques/installations/donnees/details/0003106795;KOBA GLOBAL SERVICES;;KOBA GLOBAL SERVICES;Canéjan;243301165;CC Jalle-Eau-Bourde
0003106862;SEPUR (TRIGIRONDE);8 route de la Pinière;;;33910;33393;Saint-Denis-de-Pile;38;35005058900240;451257;6438215;2154;-0.157413;44.998399;false;false;false;false;false;true;false;Non Seveso;false;DREAL NA;En exploitation avec titre;Enregistrement;https://www.georisques.gouv.fr/risques/installations/donnees/details/0003106862;SEPUR (TRIGIRONDE);;SEPUR (TRIGIRONDE);Saint-Denis-de-Pile;200070092;CA du Libournais
0053320024;CIAVG  Club International Amis Vins Gast;;137 le bourg;;33620;33123;Cézac;46;32336167500115;428374;6448592;2154;-0.453281;45.083128;false;false;false;false;false;false;false;;false;DDPP 33;;Autres régimes;https://www.georisques.gouv.fr/risques/installations/donnees/details/0053320024;CIAVG  Club International Amis Vins Gast;;CIAVG  Club International Amis Vins Gast;Cézac;243301181;CC Latitude Nord Gironde
0005212436;EARL VIGNOBLES LOPEZ;LD L HERMITAGE N°1;;;33540;33446;Saint-Martin-du-Puy;01;31960709900011;460281;6400980;2154;-0.024885;44.666599;false;false;false;false;false;false;false;;false;DDPP 33;;Autres régimes;https://www.georisques.gouv.fr/risques/installations/donnees/details/0005212436;EARL VIGNOBLES LOPEZ;;EARL VIGNOBLES LOPEZ;Saint-Martin-du-Puy;200069599;CC Rurales de l'Entre-Deux-Mers
0005200280;SIORAT - Arsac;;;;33460;33012;Arsac;42;67682013700054;409497;6439811;2154;-0.687723;44.996463;false;false;false;false;false;true;false;Non Seveso;false;DREAL NA;En fin d'exploitation;Enregistrement;https://www.georisques.gouv.fr/risques/installations/donnees/details/0005200280;SIORAT;Arsac;SIORAT — Arsac;Arsac;243301447;CC Médoc Estuaire
0053326368;SCEA DU MAYNE VIEIL;;4 RTE DE SAILLANS;;33133;33179;Galgon;01;35064749100017;441815;6436197;2154;-0.276068;44.976782;false;false;false;false;false;false;false;;false;DDPP 33;;Autres régimes;https://www.georisques.gouv.fr/risques/installations/donnees/details/0053326368;SCEA DU MAYNE VIEIL;;SCEA DU MAYNE VIEIL;Galgon;243301397;CC du Fronsadais
0053301146;LECLERC SAINT MEDARD;Avenue Descartes;;;33160;33449;Saint-Médard-en-Jalles;;47020299500028;401804;6426943;2154;-0.777425;44.877462;false;false;false;false;false;false;false;;false;DDPP 33;;Non ICPE;https://www.georisques.gouv.fr/risques/installations/donnees/details/0053301146;LECLERC SAINT MEDARD;;LECLERC SAINT MEDARD;Saint-Médard-en-Jalles;243300316;Bordeaux Métropole
0005211794;SCEA CHATEAU GLANET;CHATEAU GLANET;;;33410;33299;Mourens;01;41189772100014;445118;6399073;2154;-0.215034;44.644052;false;false;false;false;false;false;false;;false;DDPP 33;;Autres régimes;https://www.georisques.gouv.fr/risques/installations/donnees/details/0005211794;SCEA CHATEAU GLANET;;SCEA CHATEAU GLANET;Mourens;200069599;CC Rurales de l'Entre-Deux-Mers
0005203700;LIGNAT Frédéric - Laruscade (l'Etang);L'ETANG;;;33620;33233;Laruscade;15;32385510600015;435432;6452778;2154;-0.365927;45.123527;false;false;false;false;false;true;false;Non Seveso;false;DREAL NA;En fin d'exploitation;Autorisation;https://www.georisques.gouv.fr/risques/installations/donnees/details/0005203700;LIGNAT Frédéric;Laruscade (l'Etang);LIGNAT Frédéric — Laruscade (l'Etang);Laruscade;243301181;CC Latitude Nord Gironde
0100022984;CMP Composites;37 impasse du Taillan;;;33320;33162;Eysines;;82322420900028;413009;6426125;2154;-0.635212;44.874839;false;false;false;false;false;false;false;;false;DREAL NA;;Non ICPE;https://www.georisques.gouv.fr/risques/installations/donnees/details/0100022984;CMP Composites;;CMP Composites;Eysines;243300316;Bordeaux Métropole
0005204939;LEFEBVRE Jean - Mios;Aire de Beauchamps;;;33380;33284;Mios;;31574951500047;387955;6397317;2154;-0.933892;44.604971;false;false;false;false;false;true;false;Non Seveso;false;DREAL NA;En fin d'exploitation;Enregistrement;https://www.georisques.gouv.fr/risques/installations/donnees/details/0005204939;LEFEBVRE Jean;Mios;LEFEBVRE Jean — Mios;Mios;243301504;CA du Bassin d'Arcachon Nord (COBAN)
0003106787;ELECTRIC STATION - BOSCH Service;199 avenue de Lattre de Tassigny;;;33470;33199;Gujan-Mestras;45;32160690700012;375375;6395995;2154;-1.091344;44.587333;false;false;false;false;false;false;false;;false;DREAL NA;;Non ICPE;https://www.georisques.gouv.fr/risques/installations/donnees/details/0003106787;ELECTRIC STATION;BOSCH Service;ELECTRIC STATION — BOSCH Service;Gujan-Mestras;243300563;CA Bassin d'Arcachon Sud (COBAS)
0005206314;COLAS France;37 avenue de la Gravière;Les Landes de Pouyere;;33990;33300;Naujac-sur-Mer;42;32933888301631;386583;6471761;2154;-0.998644;45.273765;false;false;false;true;false;false;false;Non Seveso;false;DREAL NA;En exploitation avec titre;Autorisation;https://www.georisques.gouv.fr/risques/installations/donnees/details/0005206314;COLAS France;Naujac-sur-Mer;COLAS France — Naujac-sur-Mer;Naujac-sur-Mer;200070720;CC Médoc Atlantique
0005207271;MALET-St-Seurin sur l'Isle;;;;33660;33478;Saint-Seurin-sur-l'Isle;42;30269887300015;463639;6439303;2154;-0.000922;45.012534;false;false;false;false;false;true;false;Non Seveso;false;DREAL NA;En fin d'exploitation;Enregistrement;https://www.georisques.gouv.fr/risques/installations/donnees/details/0005207271;MALET-St-Seurin sur l'Isle;;MALET-St-Seurin sur l'Isle;Saint-Seurin-sur-l'Isle;200070092;CA du Libournais
0005212244;Ville de Bordeaux -JKG;23 - 27 rue Baour;;;33000;33063;Bordeaux;;;417958;6423461;2154;-0.571086;44.852911;false;false;false;false;false;false;false;;false;DREAL NA;;Non ICPE;https://www.georisques.gouv.fr/risques/installations/donnees/details/0005212244;Ville de Bordeaux -JKG;;Ville de Bordeaux -JKG;Bordeaux;243300316;Bordeaux Métropole
0005206114;PANOFRANCE-VISCONTI;149 Quai de la Souys;;;33270;33167;Floirac;;31277303900010;420879;6419637;2154;-0.531987;44.8197;false;false;false;false;false;false;false;;false;DREAL NA;;Autres régimes;https://www.georisques.gouv.fr/risques/installations/donnees/details/0005206114;PANOFRANCE-VISCONTI;;PANOFRANCE-VISCONTI;Floirac;243300316;Bordeaux Métropole
0005214128;GIRET Eric;Au Breuillet-Est;parcelle ZM 139;;33230;33001;Abzac;;;452917;6438494;2154;-0.136505;45.001505;false;false;false;false;false;true;false;Non Seveso;false;DREAL NA;En fin d'exploitation;Autorisation;https://www.georisques.gouv.fr/risques/installations/donnees/details/0005214128;GIRET Eric;;GIRET Eric;Abzac;200070092;CA du Libournais
0005200777;MAIRIE - Gensac;Rocanguille;;;33890;33186;Gensac;;21330186400012;468251;6415564;2154;0.068762;44.80051;false;false;false;false;false;true;false;Non Seveso;false;DREAL NA;En fin d'exploitation;Autorisation;https://www.georisques.gouv.fr/risques/installations/donnees/details/0005200777;MAIRIE - Gensac;;MAIRIE - Gensac;Gensac;243301454;CC Castillon/Pujols
0053321136;SARL CHATEAU CAP DE FAUGERES;LD FAUGERE;;;33350;33390;Sainte-Colombe;01;51898537900016;456869;6424816;2154;-0.079621;44.879849;false;false;false;false;false;false;false;;false;DDPP 33;;Autres régimes;https://www.georisques.gouv.fr/risques/installations/donnees/details/0053321136;SARL CHATEAU CAP DE FAUGERES;;SARL CHATEAU CAP DE FAUGERES;Sainte-Colombe;243301454;CC Castillon/Pujols
0005200590;LESIEUR;112, Quai de Bacalan;BP  240;;33000;33063;Bordeaux;10;45720861900108;419496;6424353;2154;-0.552146;44.861558;false;false;false;false;false;false;false;;false;DREAL NA;;Non ICPE;https://www.georisques.gouv.fr/risques/installations/donnees/details/0005200590;LESIEUR;Bordeaux;LESIEUR — Bordeaux;Bordeaux;243300316;Bordeaux Métropole
0005200677;S.A.R.L. LABADIE;Chemin de Lissandre;;;33150;33119;Cenon;38;38424374700019;420598;6424187;2154;-0.538116;44.860511;false;false;false;false;false;true;false;Non Seveso;false;DREAL NA;En fin d'exploitation;Enregistrement;https://www.georisques.gouv.fr/risques/installations/donnees/details/0005200677;S.A.R.L. LABADIE;;S.A.R.L. LABADIE;Cenon;243300316;Bordeaux Métropole
0005200367;TESTOUTIL S.A.;ZI de Bazas;10 cours Guillaume Arnaud de Tontoulon;;33430;33036;Bazas;;30773744500014;442600;6376455;2154;-0.235078;44.439681;false;false;false;false;false;true;false;Non Seveso;false;DREAL NA;En fin d'exploitation;Enregistrement;https://www.georisques.gouv.fr/risques/installations/donnees/details/0005200367;TESTOUTIL S.A.;;TESTOUTIL S.A.;Bazas;200043982;CC du Bazadais
0005207673;GLP CESTAS SCI (ex BERMIE NAUTIC);Zone industrielle Auguste II;;;33610;33122;Cestas;68;91113090400012;405772;6414258;2154;-0.719671;44.76508;false;false;false;false;false;true;false;Non Seveso;false;DREAL NA;En exploitation avec titre;Autorisation;https://www.georisques.gouv.fr/risques/installations/donnees/details/0005207673;GLP CESTAS SCI (ex BERMIE NAUTIC);;GLP CESTAS SCI (ex BERMIE NAUTIC);Cestas;243301165;CC Jalle-Eau-Bourde
0005213863;Société Brédoise de Service;Lieu-dit Argilas le long de la D111 parcelle D33;;;33650;33501;Saucats;01;32145865500032;413316;6401544;2154;-0.617076;44.653894;false;false;false;false;false;false;false;;false;DREAL NA;;Non ICPE;https://www.georisques.gouv.fr/risques/installations/donnees/details/0005213863;Société Brédoise de Service;;Société Brédoise de Service;Saucats;243301264;CC de Montesquieu
0005206651;AUBERTIE Bernard;51 Boulevard Feydeau;;;33370;33013;Artigues-près-Bordeaux;45;35368970600011;424905;6423088;2154;-0.483033;44.852349;false;false;false;false;false;false;false;;false;DREAL NA;;Non ICPE;https://www.georisques.gouv.fr/risques/installations/donnees/details/0005206651;AUBERTIE Bernard;;AUBERTIE Bernard;Artigues-près-Bordeaux;243300316;Bordeaux Métropole
0005205109;KURITA;Zone Industrielle du Bec d'Ambès;AMBES;;33810;33035;Ambès;20;80883153100062;416529;6444131;2154;-0.601082;45.03824;false;false;false;false;false;true;false;Non Seveso;false;DREAL NA;En fin d'exploitation;Autorisation;https://www.georisques.gouv.fr/risques/installations/donnees/details/0005205109;KURITA;;KURITA;Bayon-sur-Gironde;200023794;CC de Blaye
0005200361;SIAP-SARP INDUSTRIES AQUITAINE PYRENEES;Boulevard de l'Industrie;Z.I.;;33530;33032;Bassens;38;34354136300010;421513;6429168;2154;-0.529362;44.90568;false;false;false;false;false;true;true;Non Seveso;true;DREAL NA;En exploitation avec titre;Autorisation;https://www.georisques.gouv.fr/risques/installations/donnees/details/0005200361;SIAP-SARP INDUSTRIES AQUITAINE PYRENEES;;SIAP-SARP INDUSTRIES AQUITAINE PYRENEES;Bassens;243300316;Bordeaux Métropole
0005211411;COREP;rue Radio Londres;;;33130;33039;Bègles;46;47120040200041;419830;6416913;2154;-0.543697;44.794777;false;false;false;false;false;true;false;Non Seveso;false;DREAL NA;En exploitation avec titre;Enregistrement;https://www.georisques.gouv.fr/risques/installations/donnees/details/0005211411;COREP;;COREP;Bègles;243300316;Bordeaux Métropole
0100051087;PROD COMPOSITES PISCINE;52, rue Alphonse Daudet;;Seine-et-Marne;33660;33478;Saint-Seurin-sur-l'Isle;22;51509229400039;462034;6439821;2154;-0.021532;45.016644;false;false;false;false;false;false;false;;false;DREAL NA;;Autres régimes;https://www.georisques.gouv.fr/risques/installations/donnees/details/0100051087;PROD COMPOSITES PISCINE;;PROD COMPOSITES PISCINE;Saint-Seurin-sur-l'Isle;200070092;CA du Libournais
0005212287;JEANNEAU SAS;Lieu dit La Dauphine;BP 6;;33620;33233;Laruscade;68;80046790400010;437402;6452618;2154;-0.340808;45.122841;false;false;false;false;false;false;false;;false;DREAL NA;;Autres régimes;https://www.georisques.gouv.fr/risques/installations/donnees/details/0005212287;JEANNEAU SAS;;JEANNEAU SAS;Laruscade;243301181;CC Latitude Nord Gironde
0005206331;RIVOT Jean-Michel;Lieu-dit Les Deux Poteaux Sud;20 rue de l'Argonne;;33689;33281;Mérignac;56;30069489000041;405885;6419406;2154;-0.721309;44.811424;false;false;false;false;false;true;false;Non Seveso;false;DREAL NA;En fin d'exploitation;Enregistrement;https://www.georisques.gouv.fr/risques/installations/donnees/details/0005206331;RIVOT Jean-Michel;;RIVOT Jean-Michel;Mérignac;243300316;Bordeaux Métropole
0005211820;SIGNOLLE PIERRE;42 RTE DE LANDAT;CHATEAU VIEUX LANDAT;;33250;33125;Cissac-Médoc;01;39189865700021;397994;6464831;2154;-0.848989;45.216546;false;false;false;false;false;false;false;;false;DDPP 33;;Autres régimes;https://www.georisques.gouv.fr/risques/installations/donnees/details/0005211820;SIGNOLLE PIERRE;;SIGNOLLE PIERRE;Cissac-Médoc;200069995;CC Médoc Coeur de Presqu'île
0053321240;SCEA PONTALLIER ET FILS;;2      LAUBERTRIE - SALIGNAC;;33240;33018;Val de Virvée;01;48051723400013;434648;6441129;2154;-0.369569;45.018435;false;false;false;false;false;false;false;;false;DDPP 33;;Autres régimes;https://www.georisques.gouv.fr/risques/installations/donnees/details/0053321240;SCEA PONTALLIER ET FILS;;SCEA PONTALLIER ET FILS;Val de Virvée;243301223;CC du Grand Cubzaguais
0005200847;LANGON DISTRIBUTION (LECLERC);Petiteau Ouest;Moléon;;33210;33227;Langon;47;39092317500025;441877;6389457;2154;-0.250879;44.556361;false;false;false;false;false;false;false;;false;DREAL NA;;Autres régimes;https://www.georisques.gouv.fr/risques/installations/donnees/details/0005200847;LANGON DISTRIBUTION (LECLERC);;LANGON DISTRIBUTION (LECLERC);Langon;200043974;CC du Sud Gironde
0003104791;USEDCARS;cote de la Garonne;;;33310;33249;Lormont;;48373092500029;422427;6426028;2154;-0.516023;44.877805;false;false;false;false;false;false;false;;false;DREAL NA;;Non ICPE;https://www.georisques.gouv.fr/risques/installations/donnees/details/0003104791;USEDCARS;;USEDCARS;Lormont;243300316;Bordeaux Métropole
0053320961;EARL CHRISTIAN GEROMIN;2 TUDIN;;;33790;33316;Pellegrue;01;43905725800014;470000;6408488;2154;0.094156;44.73743;false;false;false;false;false;false;false;;false;DDPP 33;;Non ICPE;https://www.georisques.gouv.fr/risques/installations/donnees/details/0053320961;EARL CHRISTIAN GEROMIN;;EARL CHRISTIAN GEROMIN;Pellegrue;243301371;CC du Pays Foyen
0005206754;AXEL VEGA;Patinoire de Mériadeck;95, Cours du Mal Juin;;33000;33063;Bordeaux;93;41374835100025;416560;6421523;2154;-0.587648;44.83491;false;false;false;false;false;false;false;;false;DREAL NA;;Autres régimes;https://www.georisques.gouv.fr/risques/installations/donnees/details/0005206754;AXEL VEGA;;AXEL VEGA;Bordeaux;243300316;Bordeaux Métropole
0100311490;KAN'MOOV;1 CHE DE LA DIE;LIEU DIT LA GRANDE LABOUE;;33460;33262;Macau;77;90900598500017;416794;6439201;2154;-0.59487;44.994006;false;false;false;false;false;false;false;;false;DREAL NA;;Non ICPE;https://www.georisques.gouv.fr/risques/installations/donnees/details/0100311490;KAN'MOOV;;KAN'MOOV;Macau;243301447;CC Médoc Estuaire
0005200812;ARIANEGROUP;Les Cinq Chemins,;Rue de Touban;;33185;33200;Le Haillan;94;51903224700099;408626;6425726;2154;-0.690414;44.86942;false;false;false;false;false;true;true;Non Seveso;false;DREAL NA;En exploitation avec titre;Autorisation;https://www.georisques.gouv.fr/risques/installations/donnees/details/0005200812;ARIANEGROUP;Le Haillan;ARIANEGROUP — Le Haillan;Le Haillan;243300316;Bordeaux Métropole
0003106067;CENTRE AUTO SAINT MARIENS;Za Du Pont De Cotet, 5 Rue de Tessonneau;;;33620;33439;Saint-Mariens;;;431683;6452394;2154;-0.413353;45.118624;false;false;false;false;false;false;false;;false;DREAL NA;;Non ICPE;https://www.georisques.gouv.fr/risques/installations/donnees/details/0003106067;CENTRE AUTO SAINT MARIENS;;CENTRE AUTO SAINT MARIENS;Saint-Mariens;243301181;CC Latitude Nord Gironde
0005200555;SAN JOSE JEAN;11, Rue de NAVARRE;;;33000;33063;Bordeaux;21;30752220100010;416938;6421123;2154;-0.582641;44.831467;false;false;false;false;false;true;false;Non Seveso;false;DREAL NA;En fin d'exploitation;Enregistrement;https://www.georisques.gouv.fr/risques/installations/donnees/details/0005200555;SAN JOSE JEAN;;SAN JOSE JEAN;Bordeaux;243300316;Bordeaux Métropole
0003105037;CHATEAU DE ROQUEFORT;Roquefort;;;33760;33258;Lugasson;01;32395975900016;450126;6411557;2154;-0.158227;44.758171;false;false;false;false;false;false;false;;false;DREAL NA;;Non ICPE;https://www.georisques.gouv.fr/risques/installations/donnees/details/0003105037;CHATEAU DE ROQUEFORT;;CHATEAU DE ROQUEFORT;Lugasson;200069599;CC Rurales de l'Entre-Deux-Mers
0005200756;AIR LIQUIDE FRANCE INDUSTRIE;AV GASTON CABANNES;;;33270;33167;Floirac;20;31411950400715;421679;6419895;2154;-0.522023;44.822342;false;false;false;false;false;true;true;Seveso seuil bas;false;DREAL NA;En exploitation avec titre;Autorisation;https://www.georisques.gouv.fr/risques/installations/donnees/details/0005200756;AIR LIQUIDE FRANCE INDUSTRIE;;AIR LIQUIDE FRANCE INDUSTRIE;Floirac;243300316;Bordeaux Métropole
0005212163;PROPRIETES BORDELAISES;45, LE BOURG;;;33790;33117;Cazaugitat;01;90433147700029;462815;6406241;2154;0.004542;44.714798;false;false;false;false;false;false;false;;false;DDPP 33;;Autres régimes;https://www.georisques.gouv.fr/risques/installations/donnees/details/0005212163;PROPRIETES BORDELAISES;;PROPRIETES BORDELAISES;Cazaugitat;200069599;CC Rurales de l'Entre-Deux-Mers
0005208707;SUEZ Organique;Route de Sémignan;;;33112;33424;Saint-Laurent-Médoc;38;34530688000872;397243;6454963;2154;-0.852414;45.127469;false;false;false;false;false;true;false;Non Seveso;false;DREAL NA;En exploitation avec titre;Autorisation;https://www.georisques.gouv.fr/risques/installations/donnees/details/0005208707;SUEZ Organique;Saint-Laurent-Médoc;SUEZ Organique — Saint-Laurent-Médoc;Saint-Laurent-Médoc;200069995;CC Médoc Coeur de Presqu'île
0100296294;WINTERSTEIN FRANCOIS;99 B RUE DES PALUS;;;33290;33312;Parempuyre;38;89299917800015;419131;6433735;2154;-0.562118;44.945795;false;false;false;false;false;false;false;;false;DREAL NA;;Non ICPE;https://www.georisques.gouv.fr/risques/installations/donnees/details/0100296294;WINTERSTEIN FRANCOIS;Parempuyre — 99 B RUE DES PALUS (#2);WINTERSTEIN FRANCOIS — Parempuyre — 99 B RUE DES PALUS (#2);Parempuyre;243300316;Bordeaux Métropole
0100286986;SPIE;Chemin de Monfaucon;Parcelle n°062 section 0C;;33127;33273;Martignas-sur-Jalle;41;30269887300635;403344;6424269;2154;-0.756336;44.854075;false;false;false;false;false;false;false;;false;DREAL NA;;Non ICPE;https://www.georisques.gouv.fr/risques/installations/donnees/details/0100286986;SPIE;;SPIE;Martignas-sur-Jalle;243300316;Bordeaux Métropole
0003101562;MADAME LACROIX ANNE MARIE;10 LIEU DIT LE BREUILH;;;33620;33123;Cézac;01;50130482800012;428374;6448592;2154;-0.453281;45.083128;false;false;false;false;false;false;false;;false;DDPP 33;;Autres régimes;https://www.georisques.gouv.fr/risques/installations/donnees/details/0003101562;MADAME LACROIX ANNE MARIE;;MADAME LACROIX ANNE MARIE;Cézac;243301181;CC Latitude Nord Gironde
0005212222;SCEA CAZETTE;CAZETTE;;;33790;33277;Massugas;01;44099307900027;470904;6412591;2154;0.103666;44.774643;false;false;false;false;false;false;false;;false;DDPP 33;;Autres régimes;https://www.georisques.gouv.fr/risques/installations/donnees/details/0005212222;SCEA CAZETTE;;SCEA CAZETTE;Massugas;243301371;CC du Pays Foyen
0100078337;SOCIETE DE CONCEPTIONS ET DE REALISATIONS GRAPHIQUES;ZI DU PHARE 8 RUE GAY LUSSAC;;;33700;33281;Merignac;18;38016403800016;409543;6423406;2154;-0.677449;44.84894;false;false;false;false;false;false;false;;false;DREAL NA;;Autres régimes;https://www.georisques.gouv.fr/risques/installations/donnees/details/0100078337;SOCIETE DE CONCEPTIONS ET DE REALISATIONS GRAPHIQUES;;SOCIETE DE CONCEPTIONS ET DE REALISATIONS GRAPHIQUES;Mérignac;243300316;Bordeaux Métropole
0005201192;BARON PHILIPPE DE ROTHSCHILD SA;ZONE ARTISANALE;;;33112;33424;Saint-Laurent-Médoc;46;45920264400108;400217;6456211;2154;-0.815398;45.139993;false;false;false;false;false;true;false;Non Seveso;false;DDPP 33;En exploitation avec titre;Enregistrement;https://www.georisques.gouv.fr/risques/installations/donnees/details/0005201192;BARON PHILIPPE DE ROTHSCHILD SA;Saint-Laurent-Médoc;BARON PHILIPPE DE ROTHSCHILD SA — Saint-Laurent-Médoc;Saint-Laurent-Médoc;200069995;CC Médoc Coeur de Presqu'île
0053323251;SCEA BOIREAU-PERSAN;Château de Budos;3, Les Marots;;33720;33076;Budos;;33438009400014;430712;6387869;2154;-0.390467;44.537853;false;false;false;false;false;false;false;;false;DDPP 33;;Autres régimes;https://www.georisques.gouv.fr/risques/installations/donnees/details/0053323251;SCEA BOIREAU-PERSAN;;SCEA BOIREAU-PERSAN;Budos;200069581;CC Convergence Garonne
0005213236;SCEA DES VIGNOBLES CANTERRANNE;LD LE ROUEY;;;33540;33506;Sauveterre-de-Guyenne;01;40066905700012;456693;6402829;2154;-0.071022;44.681986;false;false;false;false;false;false;false;;false;DDPP 33;;Autres régimes;https://www.georisques.gouv.fr/risques/installations/donnees/details/0005213236;SCEA DES VIGNOBLES CANTERRANNE;;SCEA DES VIGNOBLES CANTERRANNE;Sauveterre-de-Guyenne;200069599;CC Rurales de l'Entre-Deux-Mers
0003107089;GARDIER Micheline (station-service);222 boulevard Jean-Jacques Bosc;;;33130;33039;Bègles;50;38806392700015;419853;6418400;2154;-0.54425;44.80816;false;false;false;false;false;false;false;;false;DREAL NA;;Non ICPE;https://www.georisques.gouv.fr/risques/installations/donnees/details/0003107089;GARDIER Micheline (station-service);;GARDIER Micheline (station-service);Bègles;243300316;Bordeaux Métropole
0100032929;CAMPUS ATLANTICA;24 AV DE VIRECOURT;ARTIGUES PRES BORDEAUX;;33370;33013;ARTIGUES-PRES-BORDEAUX;56;81931642300014;423676;6423440;2154;-0.498771;44.855026;false;false;false;false;false;false;false;;false;DREAL NA;;Autres régimes;https://www.georisques.gouv.fr/risques/installations/donnees/details/0100032929;CAMPUS ATLANTICA;;CAMPUS ATLANTICA;Artigues-près-Bordeaux;243300316;Bordeaux Métropole
0005208090;DBP AQUITAINE;4 RUE RENE BORN;ZAE EYRIALYS;;33114;33029;Le Barp;25;84498503600020;399658;6398492;2154;-0.787295;44.620685;false;false;false;false;false;true;true;Seveso seuil bas;true;DREAL NA;En exploitation avec titre;Autorisation;https://www.georisques.gouv.fr/risques/installations/donnees/details/0005208090;DBP AQUITAINE;;DBP AQUITAINE;Le Barp;243301405;CC du Val de l'Eyre
0100020549;AHCARS;10 ALL FELIX NADAR;;;33700;33281;MERIGNAC;45;90930761300010;409752;6423124;2154;-0.67464;44.846492;false;false;false;false;false;false;false;;false;DREAL NA;;Non ICPE;https://www.georisques.gouv.fr/risques/installations/donnees/details/0100020549;AHCARS;;AHCARS;Mérignac;243300316;Bordeaux Métropole
0005200617;GAMMA ASSISTANCE;;;;33820;33073;Braud-et-Saint-Louis;;35032229300019;415693;6467520;2154;-0.625319;45.248271;false;false;false;false;false;true;false;Non Seveso;false;DREAL NA;En fin d'exploitation;Autorisation;https://www.georisques.gouv.fr/risques/installations/donnees/details/0005200617;GAMMA ASSISTANCE;;GAMMA ASSISTANCE;Braud-et-Saint-Louis;243300811;CC de l'Estuaire
0005212560;SAS LAMONT FINANCIERE;Château LAURETTE;;;33410;33392;Sainte-Croix-du-Mont;01;53379902900020;440359;6394229;2154;-0.272465;44.59872;false;false;false;false;false;false;false;;false;DDPP 33;;Autres régimes;https://www.georisques.gouv.fr/risques/installations/donnees/details/0005212560;SAS LAMONT FINANCIERE;Sainte-Croix-du-Mont;SAS LAMONT FINANCIERE — Sainte-Croix-du-Mont;Sainte-Croix-du-Mont;200069581;CC Convergence Garonne
0005213151;ECOBENNE;Lieu-dit Croix d'Hins;;;33380;33555;Marcheprime;38;50969861900012;398434;6408490;2154;-0.808782;44.710061;false;false;false;false;false;true;false;Non Seveso;false;DREAL NA;En exploitation avec titre;Enregistrement;https://www.georisques.gouv.fr/risques/installations/donnees/details/0005213151;ECOBENNE;Marcheprime;ECOBENNE — Marcheprime;Marcheprime;243301504;CA du Bassin d'Arcachon Nord (COBAN)
0005200990;GALASSI Georges;35 avenue Maurice Levy;;;33689;33281;Mérignac;56;46810644800011;409204;6423613;2154;-0.681857;44.85066;false;false;false;false;false;true;false;Non Seveso;false;DREAL NA;En fin d'exploitation;Enregistrement;https://www.georisques.gouv.fr/risques/installations/donnees/details/0005200990;GALASSI Georges;;GALASSI Georges;Mérignac;243300316;Bordeaux Métropole
0003106726;CMC BOUILLEAU SARL;Parcelle n° 15, section ZH;;;33340;33348;Queyrac;;49366537600015;387562;6481333;2154;-0.992345;45.360291;false;false;false;false;false;false;false;;false;DREAL NA;;Non ICPE;https://www.georisques.gouv.fr/risques/installations/donnees/details/0003106726;CMC BOUILLEAU SARL;;CMC BOUILLEAU SARL;Queyrac;200070720;CC Médoc Atlantique
0053320971;LES VIGNERONS DE TUTIAC;13 AV DE LA CAVE;;;33240;33317;Périssac;11;39259892600062;438034;6440984;2154;-0.326545;45.018423;false;false;false;false;false;true;false;Non Seveso;false;DDPP 33;En exploitation avec titre;Enregistrement;https://www.georisques.gouv.fr/risques/installations/donnees/details/0053320971;LES VIGNERONS DE TUTIAC;Périssac;LES VIGNERONS DE TUTIAC — Périssac;Périssac;243301397;CC du Fronsadais
0053321287;SCA VIGNOBLE BOUDON;;AU BOURDIEU;;33760;33515;Soulignac;01;40213094200012;439624;6404828;2154;-0.287276;44.693783;false;false;false;false;false;false;false;;false;DDPP 33;;Autres régimes;https://www.georisques.gouv.fr/risques/installations/donnees/details/0053321287;SCA VIGNOBLE BOUDON;;SCA VIGNOBLE BOUDON;Soulignac;200069599;CC Rurales de l'Entre-Deux-Mers
0053316935;VIGNERONS PUISSEGUIN LUSSAC ST-EMILION;La Millerie;;;33350;33181;Gardegan-et-Tourtirac;11;78189980200016;460578;6427221;2154;-0.033857;44.902779;false;false;false;false;false;false;false;;false;DDPP 33;;Non ICPE;https://www.georisques.gouv.fr/risques/installations/donnees/details/0053316935;VIGNERONS PUISSEGUIN LUSSAC ST-EMILION;;VIGNERONS PUISSEGUIN LUSSAC ST-EMILION;Gardegan-et-Tourtirac;200035533;CC du Grand Saint Emilionnais
0005206976;DYNEFF Aire des Palombiéres;Autoroute A89;;;33660;33191;Gours;;;465436;6437564;2154;0.022703;44.9975;false;false;false;false;false;false;false;;false;DREAL NA;;Autres régimes;https://www.georisques.gouv.fr/risques/installations/donnees/details/0005206976;DYNEFF Aire des Palombiéres;;DYNEFF Aire des Palombiéres;Gours;200070092;CA du Libournais
0100046401;PRONADIS;15 Bis Parc Ecopaysager Bos Plan;--;;33750;33049;BEYCHAC ET CAILLAU;46;34815304000079;434602;6426106;2154;-0.362035;44.883279;false;false;false;false;false;false;false;;false;DREAL NA;;Autres régimes;https://www.georisques.gouv.fr/risques/installations/donnees/details/0100046401;PRONADIS;;PRONADIS;Beychac-et-Caillau;243301249;CC Les Rives de la Laurence
0003105140;SAFRAN ADDITIVE MANUFACTURING CAMPUS;Rue de Touban;;;33185;33200;Le Haillan;72;81525577300021;407023;6423877;2154;-0.709587;44.852115;false;false;false;false;false;true;false;Non Seveso;false;DREAL NA;En exploitation avec titre;Autorisation;https://www.georisques.gouv.fr/risques/installations/donnees/details/0003105140;SAFRAN ADDITIVE MANUFACTURING CAMPUS;;SAFRAN ADDITIVE MANUFACTURING CAMPUS;Le Haillan;243300316;Bordeaux Métropole
0053320942;DURAND BRIGITTE;CHATEAU PREVOT;26  LOT GUEYRUSSE;;33420;33298;Moulon;01;41508615600015;445434;6423345;2154;-0.223545;44.862508;false;false;false;false;false;false;false;;false;DDPP 33;;Autres régimes;https://www.georisques.gouv.fr/risques/installations/donnees/details/0053320942;DURAND BRIGITTE;;DURAND BRIGITTE;Moulon;200070092;CA du Libournais
0005209865;AGFA HealthCare;4 avenue de l'église romane;;;33370;33013;Artigues-près-Bordeaux;62;41459958900028;424139;6423672;2154;-0.493046;44.857297;false;false;false;false;false;false;false;;false;DREAL NA;;Non ICPE;https://www.georisques.gouv.fr/risques/installations/donnees/details/0005209865;AGFA HealthCare;;AGFA HealthCare;Artigues-près-Bordeaux;243300316;Bordeaux Métropole
0053323687;VIGNOBLES CLEMENT FAYAT;Château La Dominique;;;33330;33394;Saint-Émilion;;59635017300057;448661;6429736;2154;-0.18599;44.92118;false;false;false;false;false;false;false;;false;DDPP 33;;Autres régimes;https://www.georisques.gouv.fr/risques/installations/donnees/details/0053323687;VIGNOBLES CLEMENT FAYAT;Saint-Émilion;VIGNOBLES CLEMENT FAYAT — Saint-Émilion;Saint-Émilion;200035533;CC du Grand Saint Emilionnais
0100051343;FLUOROTECHNIQUE;9 RUE VERT CASTEL;;;33700;33281;MERIGNAC;25;31818648300075;408733;6423545;2154;-0.687771;44.84985;false;false;false;false;false;false;false;;false;DREAL NA;;Autres régimes;https://www.georisques.gouv.fr/risques/installations/donnees/details/0100051343;FLUOROTECHNIQUE;;FLUOROTECHNIQUE;Mérignac;243300316;Bordeaux Métropole
0005212954;VIEL Jonathan;Route d'Hosteins;;;33830;33042;Belin-Béliet;45;79423834500019;403973;6382150;2154;-0.723255;44.475582;false;false;false;false;false;true;false;Non Seveso;false;DREAL NA;En fin d'exploitation;Enregistrement;https://www.georisques.gouv.fr/risques/installations/donnees/details/0005212954;VIEL Jonathan;;VIEL Jonathan;Belin-Béliet;243301405;CC du Val de l'Eyre
0005200745;BMSO (Agence POINT P)-Eysines;360 Avenue du Médoc;;;33320;33162;Eysines;68;77811582401061;410951;6428117;2154;-0.662412;44.891898;false;false;false;false;false;false;false;;false;DREAL NA;;Autres régimes;https://www.georisques.gouv.fr/risques/installations/donnees/details/0005200745;BMSO (Agence POINT P)-Eysines;;BMSO (Agence POINT P)-Eysines;Eysines;243300316;Bordeaux Métropole
0100038338;Mairie de Cestas;Complexe sportif du Bouzet;Chemin de Canéjan;;33610;33122;Cestas;;;408558;6413506;2154;-0.684058;44.759492;false;false;false;false;false;false;false;;false;DREAL NA;;Autres régimes;https://www.georisques.gouv.fr/risques/installations/donnees/details/0100038338;Mairie de Cestas;;Mairie de Cestas;Cestas;243301165;CC Jalle-Eau-Bourde
0005213415;COBAN - Déchetterie;zone d'activité;;;33740;33011;Arès;84;24330150400052;374125;6417127;2154;-1.120957;44.776738;false;false;false;false;false;true;false;Non Seveso;false;DREAL NA;En exploitation avec titre;Enregistrement;https://www.georisques.gouv.fr/risques/installations/donnees/details/0005213415;COBAN;Déchetterie — Arès;COBAN — Déchetterie — Arès;Arès;243301504;CA du Bassin d'Arcachon Nord (COBAN)
0003105771;LARRIBAUD Jean-Pierre;;Parcelles cadastrales 0460, 0291 : GPS : 44,72571- -0,179014;;33760;33025;Baigneaux;;;447458;6407641;2154;-0.189914;44.721978;false;false;false;false;false;true;false;Non Seveso;false;DREAL NA;En fin d'exploitation;Enregistrement;https://www.georisques.gouv.fr/risques/installations/donnees/details/0003105771;LARRIBAUD Jean-Pierre;;LARRIBAUD Jean-Pierre;Baigneaux;200069599;CC Rurales de l'Entre-Deux-Mers
0005208895;LECAUDEY Yves;La Levade;;;33480;33417;Sainte-Hélène;;;386023;6436622;2154;-0.983182;44.957522;false;false;false;false;false;false;false;;false;DREAL NA;;Non ICPE;https://www.georisques.gouv.fr/risques/installations/donnees/details/0005208895;LECAUDEY Yves;;LECAUDEY Yves;Sainte-Hélène;243301389;CC Médullienne
0005212299;EARL LE BIOT;LE BIOT;;;33760;33515;Soulignac;01;38013951900017;439871;6405005;2154;-0.284254;44.695467;false;false;false;false;false;false;false;;false;DDPP 33;;Autres régimes;https://www.georisques.gouv.fr/risques/installations/donnees/details/0005212299;EARL LE BIOT;;EARL LE BIOT;Soulignac;200069599;CC Rurales de l'Entre-Deux-Mers
0053318048;STE EXPLOITATION VIGNOBLES DUBOURDIEU;LIEU DIT ARCHAMBEAU;;;33720;33205;Illats;01;42360969200011;431157;6392852;2154;-0.387561;44.582842;false;false;false;false;false;false;false;;false;DDPP 33;;Autres régimes;https://www.georisques.gouv.fr/risques/installations/donnees/details/0053318048;STE EXPLOITATION VIGNOBLES DUBOURDIEU;;STE EXPLOITATION VIGNOBLES DUBOURDIEU;Illats;200069581;CC Convergence Garonne
0005200770;LAFARGE GRANULATS (LG) - IC;L'Espasot Nord;;;33190;33254;Fontet;08;56211088202243;458317;6389666;2154;-0.044142;44.564139;false;false;false;false;false;true;false;Non Seveso;false;DREAL NA;En exploitation avec titre;Enregistrement;https://www.georisques.gouv.fr/risques/installations/donnees/details/0005200770;LAFARGE GRANULATS (LG);IC — Fontet;LAFARGE GRANULATS (LG) — IC — Fontet;Loupiac-de-la-Réole;200044394;CC du Réolais en Sud Gironde
0100058833;BEYNEL PALOX;RUE JACQUES BEYNEL;SITE ECO INDUSTRIEL SYLVA 21;;33770;33498;Salles;16;88328964700017;395854;6388763;2154;-0.829243;44.531552;false;false;false;false;false;false;false;;false;DREAL NA;;Non ICPE;https://www.georisques.gouv.fr/risques/installations/donnees/details/0100058833;BEYNEL PALOX;;BEYNEL PALOX;Salles;243301405;CC du Val de l'Eyre
0003102714;UCVA STOCKAGE;31 RUE EDOUARD BRANLY;;;33230;33138;COUTRAS;52;44291329900016;453758;6443802;2154;-0.128509;45.04956;false;false;false;false;false;true;true;Non Seveso;false;DREAL NA;En exploitation avec titre;Autorisation;https://www.georisques.gouv.fr/risques/installations/donnees/details/0003102714;UCVA STOCKAGE;;UCVA STOCKAGE;Coutras;200070092;CA du Libournais
0100035111;MERIGNAC CENTRE ENERGIES - Chaufferie Résidence Parc de Capeyron;Rue des Coteaux;Chaufferie Résidence Parc de Capeyron;;33700;33281;MERIGNAC;;89322383400019;411351;6423729;2154;-0.65478;44.852601;false;false;false;false;false;false;false;;false;DREAL NA;;Autres régimes;https://www.georisques.gouv.fr/risques/installations/donnees/details/0100035111;MERIGNAC CENTRE ENERGIES;Chaufferie Résidence Parc de Capeyron;MERIGNAC CENTRE ENERGIES — Chaufferie Résidence Parc de Capeyron;Mérignac;243300316;Bordeaux Métropole
0003103756;MAIRIE-PRIGNAC ET MARCAMPS;Lieu-dit Jansier;Parcelle B1490;;33710;33339;Prignac-et-Marcamps;68;21330339900017;425000;6443103;2154;-0.493035;45.032418;false;false;false;false;false;true;false;Non Seveso;false;DREAL NA;En fin d'exploitation;Autorisation;https://www.georisques.gouv.fr/risques/installations/donnees/details/0003103756;MAIRIE-PRIGNAC ET MARCAMPS;;MAIRIE-PRIGNAC ET MARCAMPS;Prignac-et-Marcamps;243301223;CC du Grand Cubzaguais
0005205965;CASTEL FRERES;24 rue Georges Guynemer;;;33290;33056;Blanquefort;46;48228369400024;414841;6431565;2154;-0.615192;44.924523;false;false;false;false;false;true;true;Non Seveso;true;DDPP 33;En exploitation avec titre;Autorisation;https://www.georisques.gouv.fr/risques/installations/donnees/details/0005205965;CASTEL FRERES;Blanquefort — 24 rue Georges Guynemer;CASTEL FRERES — Blanquefort — 24 rue Georges Guynemer;Blanquefort;243300316;Bordeaux Métropole
0005208860;EDISUD;Lacanau de Mios;;;33380;33284;Mios;38;43388367500046;394007;6402164;2154;-0.860703;44.651242;false;false;false;false;false;true;false;Non Seveso;false;DREAL NA;En fin d'exploitation;Autorisation;https://www.georisques.gouv.fr/risques/installations/donnees/details/0005208860;EDISUD;;EDISUD;Mios;243301504;CA du Bassin d'Arcachon Nord (COBAN)
0003100499;ELEVAGE DES DUNES DES SAGES;GUERIN AUDREY;lieu dit Grand Sorillon, au Gat, n°33;;33230;33001;Abzac;01;79009503800010;453714;6439180;2154;-0.126743;45.007961;false;false;false;false;false;false;false;;false;DDPP 33;;Autres régimes;https://www.georisques.gouv.fr/risques/installations/donnees/details/0003100499;ELEVAGE DES DUNES DES SAGES;;ELEVAGE DES DUNES DES SAGES;Abzac;200070092;CA du Libournais
0005203947;FABRIMACO - St Michel de Rieufret;Menjourian;;;33720;33452;Saint-Michel-de-Rieufret;84;21330452000017;427390;6400672;2154;-0.439257;44.651711;false;false;false;false;false;true;false;Non Seveso;false;DREAL NA;En fin d'exploitation;Autorisation;https://www.georisques.gouv.fr/risques/installations/donnees/details/0005203947;FABRIMACO;St Michel de Rieufret;FABRIMACO — St Michel de Rieufret;Saint-Michel-de-Rieufret;200069581;CC Convergence Garonne
0005213860;COBOGAL;ZI AMBES;;;33810;33004;Ambès;;45620101100016;417752;6441669;2154;-0.584148;45.016596;false;false;false;false;false;true;false;Non Seveso;false;DREAL NA;En exploitation avec titre;Autorisation;https://www.georisques.gouv.fr/risques/installations/donnees/details/0005213860;COBOGAL;;COBOGAL;Ambès;243300316;Bordeaux Métropole
0005203916;DE FOUGIERES - St Loubès (Goubert);LE GOUBERT;;;33450;33433;Saint-Loubès;68;42330176100015;427400;6431913;2154;-0.456372;44.932715;false;false;false;false;false;true;false;Non Seveso;false;DREAL NA;En fin d'exploitation;Autorisation;https://www.georisques.gouv.fr/risques/installations/donnees/details/0005203916;DE FOUGIERES;St Loubès (Goubert);DE FOUGIERES — St Loubès (Goubert);Saint-Loubès;243301249;CC Les Rives de la Laurence
0053326695;CHARCUTERIE BORDELAISE;;20 Avenue du Maréchal DE LATTRE;;33140;33550;PONT DE LA MAYE;;43391272200033;418474;6414422;2154;-0.559406;44.771824;false;false;false;false;false;false;false;;false;DDPP 33;;Autres régimes;https://www.georisques.gouv.fr/risques/installations/donnees/details/0053326695;CHARCUTERIE BORDELAISE;PONT DE LA MAYE;CHARCUTERIE BORDELAISE — PONT DE LA MAYE;Villenave-d'Ornon;243300316;Bordeaux Métropole
0005200778;GUIRAUD SEAC;;;;33190;33187;Gironde-sur-Dropt;;62080058100089;455051;6391956;2154;-0.086365;44.583598;false;false;false;false;false;false;false;;false;DREAL NA;;Autres régimes;https://www.georisques.gouv.fr/risques/installations/donnees/details/0005200778;GUIRAUD SEAC;;GUIRAUD SEAC;Gironde-sur-Dropt;200044394;CC du Réolais en Sud Gironde
0005212119;CHATEAU LAVILLE;CHATEAU LAVILLE;;;33210;33337;Preignac;01;38090060500011;437229;6391212;2154;-0.310275;44.570409;false;false;false;false;false;false;false;;false;DDPP 33;;Autres régimes;https://www.georisques.gouv.fr/risques/installations/donnees/details/0005212119;CHATEAU LAVILLE;;CHATEAU LAVILLE;Preignac;200069581;CC Convergence Garonne
0005206203;LE FOLL TP;;;;33920;33382;Saint-Christoly-de-Blaye;42;33250600500013;424390;6453910;2154;-0.506866;45.129385;false;false;false;false;false;true;false;Non Seveso;false;DREAL NA;En fin d'exploitation;Enregistrement;https://www.georisques.gouv.fr/risques/installations/donnees/details/0005206203;LE FOLL TP;;LE FOLL TP;Saint-Christoly-de-Blaye;200023794;CC de Blaye
0005200969;SOCOREG;8, rue Gay Lussac;ZI du Phare;;33689;33281;Mérignac;43;49326200000018;409180;6423484;2154;-0.682084;44.84949;false;false;false;false;false;false;false;;false;DREAL NA;;Autres régimes;https://www.georisques.gouv.fr/risques/installations/donnees/details/0005200969;SOCOREG;;SOCOREG;Mérignac;243300316;Bordeaux Métropole
0053319903;SCEA JEAN MEDEVILLE ET FILS;;Château Fayau;;33410;33081;CADILLAC-SUR-GARONNE;;78186086100017;437569;6398572;2154;-0.309882;44.636738;false;false;false;false;false;false;false;;false;DDPP 33;;Autres régimes;https://www.georisques.gouv.fr/risques/installations/donnees/details/0053319903;SCEA JEAN MEDEVILLE ET FILS;;SCEA JEAN MEDEVILLE ET FILS;Cadillac-sur-Garonne;200069581;CC Convergence Garonne
0003104861;Décharge d'Auros;Site de Monco;;;33124;33021;Auros;;21330021300013;448477;6383975;2154;-0.165081;44.509465;false;false;false;false;false;false;false;;false;DREAL NA;;Non ICPE;https://www.georisques.gouv.fr/risques/installations/donnees/details/0003104861;Décharge d'Auros;;Décharge d'Auros;Auros;200044394;CC du Réolais en Sud Gironde
0100036522;COMMUNE DE BLANQUEFORT;31 Rue de Fongravey;--;;33290;33056;Blanquefort;;21330056900018;413390;6430778;2154;-0.633103;44.916845;false;false;false;false;false;false;false;;false;DREAL NA;;Autres régimes;https://www.georisques.gouv.fr/risques/installations/donnees/details/0100036522;COMMUNE DE BLANQUEFORT;;COMMUNE DE BLANQUEFORT;Blanquefort;243300316;Bordeaux Métropole
0005208818;REY'PASSAGE SARL;105, avenue du Général Leclerc;;;33000;33063;Bordeaux;96;41940149200030;414850;6423686;2154;-0.610514;44.853663;false;false;false;false;false;false;false;;false;DREAL NA;;Autres régimes;https://www.georisques.gouv.fr/risques/installations/donnees/details/0005208818;REY'PASSAGE SARL;;REY'PASSAGE SARL;Bordeaux;243300316;Bordeaux Métropole
0005209518;MAILLE Jean-Claude;17 pré de la fosse;;;33620;33114;Cavignac;45;52117016700014;434773;6449421;2154;-0.372478;45.093075;false;false;false;false;false;false;false;;false;DREAL NA;;Non ICPE;https://www.georisques.gouv.fr/risques/installations/donnees/details/0005209518;MAILLE Jean-Claude;;MAILLE Jean-Claude;Cavignac;243301181;CC Latitude Nord Gironde
0005208668;SODIBOR (SAS) DISTRIBUTEUR;172 rue Jules Ferry;;;33000;33063;Bordeaux;;;417958;6423461;2154;-0.571086;44.852911;false;false;false;false;false;false;false;;false;DREAL NA;;Non ICPE;https://www.georisques.gouv.fr/risques/installations/donnees/details/0005208668;SODIBOR (SAS) DISTRIBUTEUR;;SODIBOR (SAS) DISTRIBUTEUR;Bordeaux;243300316;Bordeaux Métropole
0005204861;GERLAND ROUTES - Langon;A 62;;;33210;33227;Langon;;38407762400011;441877;6389457;2154;-0.250879;44.556361;false;false;false;false;false;true;false;Non Seveso;false;DREAL NA;En fin d'exploitation;Enregistrement;https://www.georisques.gouv.fr/risques/installations/donnees/details/0005204861;GERLAND ROUTES;Langon;GERLAND ROUTES — Langon;Langon;200043974;CC du Sud Gironde
0005201095;VEOLIA PROPRETE AQUITAINE;19 Avenue du Périgord;RN 89 - BP 69;;33370;33330;Pompignac;38;46420237300104;427869;6424583;2154;-0.446379;44.866967;false;false;false;false;false;true;false;Non Seveso;false;DREAL NA;En exploitation avec titre;Enregistrement;https://www.georisques.gouv.fr/risques/installations/donnees/details/0005201095;VEOLIA PROPRETE AQUITAINE;Pompignac;VEOLIA PROPRETE AQUITAINE — Pompignac;Pompignac;243301355;CC les Coteaux Bordelais
0100079983;MONOPRIX EXPLOITATION, PAR ABREVIATION MPX;15-17, RUE DES MARRONNIERS 57 BD GODARD;;;33110;33069;Le Bouscat;47;55208329703071;415741;6424879;2154;-0.599936;44.864759;false;false;false;false;false;false;false;;false;DREAL NA;;Autres régimes;https://www.georisques.gouv.fr/risques/installations/donnees/details/0100079983;MONOPRIX EXPLOITATION, PAR ABREVIATION MPX;;MONOPRIX EXPLOITATION, PAR ABREVIATION MPX;Le Bouscat;243300316;Bordeaux Métropole
0005207268;ICL France;11 allée de Bel-Air;;;33185;33200;Le Haillan;;38449494400018;410150;6425627;2154;-0.671081;44.869169;false;false;false;false;false;false;false;;false;DREAL NA;;Non ICPE;https://www.georisques.gouv.fr/risques/installations/donnees/details/0005207268;ICL France;;ICL France;Le Haillan;243300316;Bordeaux Métropole
0005205033;SOCIETE SCIENTIFIQUE D'ARCACHON(a suppri;Musée Aquarium d'Arcachon;rue du Professeur Jolyet;;33120;33009;Arcachon;91;78175919600012;370069;6404702;2154;-1.163876;44.663115;false;false;false;false;false;true;false;Non Seveso;false;DDPP 33;En fin d'exploitation;Autorisation;https://www.georisques.gouv.fr/risques/installations/donnees/details/0005205033;SOCIETE SCIENTIFIQUE D'ARCACHON(a suppri;;SOCIETE SCIENTIFIQUE D'ARCACHON(a suppri;Arcachon;243300563;CA Bassin d'Arcachon Sud (COBAS)
0005200654;CB (ex Chambourcy);43, Avenue Lafontaine;;;33560;33096;Carbon-Blanc;;35006338400035;424147;6429182;2154;-0.496032;44.906861;false;false;false;false;false;true;false;Non Seveso;false;DDPP 33;En exploitation avec titre;Enregistrement;https://www.georisques.gouv.fr/risques/installations/donnees/details/0005200654;CB (ex Chambourcy);;CB (ex Chambourcy);Carbon-Blanc;243300316;Bordeaux Métropole
0005206024;SARL RECUP AUTO;10 route de Soulac;;;33340;33177;Gaillan-en-Médoc;45;43846606200017;389781;6477172;2154;-0.961373;45.323877;false;false;false;false;false;true;false;Non Seveso;false;DREAL NA;En fin d'exploitation;Enregistrement;https://www.georisques.gouv.fr/risques/installations/donnees/details/0005206024;SARL RECUP AUTO;;SARL RECUP AUTO;Gaillan-en-Médoc;200069995;CC Médoc Coeur de Presqu'île
0005208928;ESTEVE Jean;6 rue de la Tuilière;;;33640;33334;Portets;;;428934;6403946;2154;-0.421591;44.681762;false;false;false;false;false;false;false;;false;DREAL NA;;Non ICPE;https://www.georisques.gouv.fr/risques/installations/donnees/details/0005208928;ESTEVE Jean;;ESTEVE Jean;Portets;200069581;CC Convergence Garonne
0053318454;STE CIV EXP CHATEAU TRONQUOY LALANDE;;;;33180;33395;Saint-Estèphe;;78198684900011;403042;6468327;2154;-0.786888;45.250185;false;false;false;false;false;false;false;;false;DDPP 33;;Non ICPE;https://www.georisques.gouv.fr/risques/installations/donnees/details/0053318454;STE CIV EXP CHATEAU TRONQUOY LALANDE;;STE CIV EXP CHATEAU TRONQUOY LALANDE;Saint-Estèphe;200069995;CC Médoc Coeur de Presqu'île
0005203639;BOUYER LEROUX;Pescontes;;;33190;33306;Noaillac;23;52910584300070;458167;6383985;2154;-0.043273;44.512983;false;false;false;true;false;false;false;Non Seveso;false;DREAL NA;En exploitation avec titre;Autorisation;https://www.georisques.gouv.fr/risques/installations/donnees/details/0005203639;BOUYER LEROUX;Noaillac;BOUYER LEROUX — Noaillac;Noaillac;200044394;CC du Réolais en Sud Gironde
0005206299;GARRIGUE (déposante);Pomponne;;;33115;33529;La Teste-de-Buch;;43920655800017;371210;6401156;2154;-1.147154;44.631776;false;false;false;false;false;true;false;Non Seveso;false;DREAL NA;En fin d'exploitation;Autorisation;https://www.georisques.gouv.fr/risques/installations/donnees/details/0005206299;GARRIGUE (déposante);;GARRIGUE (déposante);La Teste-de-Buch;243300563;CA Bassin d'Arcachon Sud (COBAS)
0003102897;SC CHATEAU DES FOUGERES;ALLEE DES FOUGERES;;;33650;33213;La Brède;01;52131706500014;420117;6403586;2154;-0.532536;44.67503;false;false;false;false;false;false;false;;false;DDPP 33;;Autres régimes;https://www.georisques.gouv.fr/risques/installations/donnees/details/0003102897;SC CHATEAU DES FOUGERES;;SC CHATEAU DES FOUGERES;La Brède;243301264;CC de Montesquieu
0005211841;SMICVAL - déchetterie;Ballastière;;;33500;33243;Libourne;;;444604;6429477;2154;-0.237225;44.917365;false;false;false;false;false;false;false;;false;DREAL NA;;Autres régimes;https://www.georisques.gouv.fr/risques/installations/donnees/details/0005211841;SMICVAL;déchetterie — Libourne;SMICVAL — déchetterie — Libourne;Libourne;200070092;CA du Libournais
0003103693;SCEA VIGNOBLES FAURE;LIEU DIT BEAU;Château BEZINEAU;;33330;33394;Saint-Émilion;01;40255504900012;449512;6428889;2154;-0.174783;44.913869;false;false;false;false;false;false;false;;false;DDPP 33;;Autres régimes;https://www.georisques.gouv.fr/risques/installations/donnees/details/0003103693;SCEA VIGNOBLES FAURE;;SCEA VIGNOBLES FAURE;Saint-Émilion;200035533;CC du Grand Saint Emilionnais
0005208821;SECAPRESS SA;16, rue Fondaudège;;;33000;33063;Bordeaux;96;43411652100064;417286;6422694;2154;-0.579143;44.845739;false;false;false;false;false;false;false;;false;DREAL NA;;Autres régimes;https://www.georisques.gouv.fr/risques/installations/donnees/details/0005208821;SECAPRESS SA;Bordeaux — 16, rue Fondaudège;SECAPRESS SA — Bordeaux — 16, rue Fondaudège;Bordeaux;243300316;Bordeaux Métropole
0100302959;REGIE DE L'EAU BORDEAUX METROPOLE;avenue de thil;;;33160;33449;Saint-Médard-en-Jalles;36;89513467400020;408394;6428094;2154;-0.69475;44.890619;false;false;false;false;false;false;false;;false;DREAL NA;;Non ICPE;https://www.georisques.gouv.fr/risques/installations/donnees/details/0100302959;REGIE DE L'EAU BORDEAUX METROPOLE;Saint-Médard-en-Jalles — avenue de thil;REGIE DE L'EAU BORDEAUX METROPOLE — Saint-Médard-en-Jalles — avenue de thil;Saint-Médard-en-Jalles;243300316;Bordeaux Métropole
0005206849;ELF Relais de Gradignan;62, Cours du Général de Gaulle;;;33170;33192;Gradignan;65;32942603500013;414369;6415152;2154;-0.611657;44.776711;false;false;false;false;false;false;false;;false;DREAL NA;;Autres régimes;https://www.georisques.gouv.fr/risques/installations/donnees/details/0005206849;ELF Relais de Gradignan;;ELF Relais de Gradignan;Gradignan;243300316;Bordeaux Métropole
0005211952;Communauté de communes de MONTESQUIEU;ZA DE L'ARNAHURT;;;33650;33213;La Brède;84;24330126400038;422460;6404939;2154;-0.50376;44.688138;false;false;false;false;false;true;false;Non Seveso;false;DREAL NA;En exploitation avec titre;Enregistrement;https://www.georisques.gouv.fr/risques/installations/donnees/details/0005211952;Communauté de communes de MONTESQUIEU;La Brède;Communauté de communes de MONTESQUIEU — La Brède;La Brède;243301264;CC de Montesquieu
0005206153;SCOTPA - St Jean d'Illac;Zone d'activité des Deux Poteaux;;;33127;33422;Saint-Jean-d'Illac;42;32810390800039;405252;6419545;2154;-0.729389;44.812406;false;false;false;false;false;true;false;Non Seveso;false;DREAL NA;En fin d'exploitation;Enregistrement;https://www.georisques.gouv.fr/risques/installations/donnees/details/0005206153;SCOTPA;St Jean d'Illac;SCOTPA — St Jean d'Illac;Saint-Jean-d'Illac;243301165;CC Jalle-Eau-Bourde
0003106488;BEL Francis;3 chemin de la Landotte;;;33450;33433;Saint-Loubès;47;41275428500010;429447;6431258;2154;-0.43009;44.927626;false;false;false;false;false;false;false;;false;DREAL NA;;Non ICPE;https://www.georisques.gouv.fr/risques/installations/donnees/details/0003106488;BEL Francis;;BEL Francis;Saint-Loubès;243301249;CC Les Rives de la Laurence
0003105437;SARL VINI SERVICES;4 COURS BACALAN;;;33390;33058;Blaye;82;38097560700017;412109;6453775;2154;-0.66283;45.123152;false;false;false;false;false;true;false;Non Seveso;false;DDPP 33;En exploitation sans titre;Enregistrement;https://www.georisques.gouv.fr/risques/installations/donnees/details/0003105437;SARL VINI SERVICES;;SARL VINI SERVICES;Blaye;200023794;CC de Blaye
0005211788;UNIVERSITE BORDEAUX 1;351 cours de la Liberation;;;33400;33522;Talence;94;52958077100010;416256;6418182;2154;-0.58957;44.804737;false;false;false;false;false;false;false;;false;DREAL NA;;Non ICPE;https://www.georisques.gouv.fr/risques/installations/donnees/details/0005211788;UNIVERSITE BORDEAUX 1;;UNIVERSITE BORDEAUX 1;Talence;243300316;Bordeaux Métropole
0005213961;EARL DOMAINE DE MILLAUDS;LIEU DIT LES MILLAUX;;;33910;33445;Saint-Martin-du-Bois;01;32780625300016;442702;6442878;2154;-0.268333;45.037216;false;false;false;false;false;false;false;;false;DDPP 33;;Autres régimes;https://www.georisques.gouv.fr/risques/installations/donnees/details/0005213961;EARL DOMAINE DE MILLAUDS;;EARL DOMAINE DE MILLAUDS;Saint-Martin-du-Bois;200070092;CA du Libournais
0053318342;SCEA PIERRE YUNG ET FILS;Château Grimont;;;33360;33349;Quinsac;;38357440700011;422675;6412154;2154;-0.50509;44.753116;false;false;false;false;false;false;false;;false;DDPP 33;;Autres régimes;https://www.georisques.gouv.fr/risques/installations/donnees/details/0053318342;SCEA PIERRE YUNG ET FILS;;SCEA PIERRE YUNG ET FILS;Quinsac;243301439;CC des Portes de l'Entre-Deux-Mers
0005201113;DECONS Raymond;;;;33360;33349;Quinsac;56;78197319300019;424400;6412672;2154;-0.483605;44.758462;false;false;false;false;false;true;false;Non Seveso;false;DREAL NA;En fin d'exploitation;Enregistrement;https://www.georisques.gouv.fr/risques/installations/donnees/details/0005201113;DECONS Raymond;;DECONS Raymond;Quinsac;243301439;CC des Portes de l'Entre-Deux-Mers
0005206724;SOCIETE NOUVELLE CHALLENGER;lieu-dit Le Bois de l'Eglise;;;33138;33229;Lanton;38;49973080200026;382918;6411182;2154;-1.006145;44.727358;false;false;false;false;false;true;false;Non Seveso;false;DREAL NA;En fin d'exploitation;Autorisation;https://www.georisques.gouv.fr/risques/installations/donnees/details/0005206724;SOCIETE NOUVELLE CHALLENGER;;SOCIETE NOUVELLE CHALLENGER;Lanton;243301504;CA du Bassin d'Arcachon Nord (COBAN)
0053326549;EARL VIGNOBLES TOUTIGEAC;CHATEAU TOUTIGEAC;6 RTE DE PRADEAU;;33760;33523;Targon;01;40971955600014;441663;6409381;2154;-0.263937;44.735499;false;false;false;false;false;false;false;;false;DDPP 33;;Autres régimes;https://www.georisques.gouv.fr/risques/installations/donnees/details/0053326549;EARL VIGNOBLES TOUTIGEAC;;EARL VIGNOBLES TOUTIGEAC;Targon;200069599;CC Rurales de l'Entre-Deux-Mers
0005214041;DOMAINE DE CHEVALIER;DOMAINE DE LA SOLITUDE;ROUTE DE LA SOLITUDE;;33650;33274;Martillac;01;32800641600015;417671;6407016;2154;-0.56532;44.704889;false;false;false;false;false;false;false;;false;DDPP 33;;Autres régimes;https://www.georisques.gouv.fr/risques/installations/donnees/details/0005214041;DOMAINE DE CHEVALIER;;DOMAINE DE CHEVALIER;Martillac;243301264;CC de Montesquieu
0100042903;SOCIETE DES NOUVEAUX HYPERMARCHES;1 avenue Pierre Mendès France;;;33340;33240;Lesparre-Médoc;47;48759616500117;391270;6475614;2154;-0.941398;45.310536;false;false;false;false;false;false;false;;false;DREAL NA;;Autres régimes;https://www.georisques.gouv.fr/risques/installations/donnees/details/0100042903;SOCIETE DES NOUVEAUX HYPERMARCHES;;SOCIETE DES NOUVEAUX HYPERMARCHES;Lesparre-Médoc;200069995;CC Médoc Coeur de Presqu'île
0005209133;NEXSTONE (ex CMGO);Les Cabanasses - Menjourian;;;33650;33452;Saint-Selve;08;53743318700375;427187;6400889;2154;-0.441934;44.653583;false;false;false;true;false;false;false;Non Seveso;false;DREAL NA;En exploitation avec titre;Autorisation;https://www.georisques.gouv.fr/risques/installations/donnees/details/0005209133;NEXSTONE (ex CMGO);Saint-Selve;NEXSTONE (ex CMGO) — Saint-Selve;Saint-Michel-de-Rieufret;200069581;CC Convergence Garonne
0100078294;F-TECH ATLANTIQUE;ZI DU PHARE 30 AV DE LA GRANGE NOIRE;;;33700;33281;Merignac;30;53026496900029;409505;6423978;2154;-0.678266;44.854069;false;false;false;false;false;false;false;;false;DREAL NA;;Autres régimes;https://www.georisques.gouv.fr/risques/installations/donnees/details/0100078294;F-TECH ATLANTIQUE;;F-TECH ATLANTIQUE;Mérignac;243300316;Bordeaux Métropole
0005204007;DILMEX - ISDI;Lieudit Le Grand Commun;;;33460;33517;Soussans;08;34210696000020;407114;6445133;2154;-0.72111;45.043323;false;false;false;false;false;false;false;;false;DREAL NA;;Non ICPE;https://www.georisques.gouv.fr/risques/installations/donnees/details/0005204007;DILMEX;ISDI;DILMEX — ISDI;Soussans;243301447;CC Médoc Estuaire
0005208621;EHTP;Aire de Beauchamps;;;33380;33284;Mios;;43998740500024;394126;6398552;2154;-0.85698;44.618815;false;false;false;false;false;true;false;Non Seveso;false;DREAL NA;En fin d'exploitation;Enregistrement;https://www.georisques.gouv.fr/risques/installations/donnees/details/0005208621;EHTP;Mios;EHTP — Mios;Mios;243301504;CA du Bassin d'Arcachon Nord (COBAN)
0005201214;BONNIN JEAN BERNARD;SAUTEREAUX;;;33450;33433;Saint-Loubès;;33952851500028;429976;6431660;2154;-0.423612;44.931449;false;false;false;false;false;true;false;Non Seveso;false;DREAL NA;En fin d'exploitation;Enregistrement;https://www.georisques.gouv.fr/risques/installations/donnees/details/0005201214;BONNIN JEAN BERNARD;;BONNIN JEAN BERNARD;Saint-Loubès;243301249;CC Les Rives de la Laurence
0003102058;EARL DAL PRA Jacques;LIEU DIT ROUCHERAU;;;33790;33372;Saint-Antoine-du-Queyret;01;41769105200019;463589;6411647;2154;0.011725;44.763697;false;false;false;false;false;false;false;;false;DDPP 33;;Autres régimes;https://www.georisques.gouv.fr/risques/installations/donnees/details/0003102058;EARL DAL PRA Jacques;;EARL DAL PRA Jacques;Saint-Antoine-du-Queyret;200069599;CC Rurales de l'Entre-Deux-Mers
0005211258;LECLERC Blaye Distribution (ancien site);31, La Gruppe;;;33390;33100;Cars;;31922755900014;413886;6454305;2154;-0.640564;45.128659;false;false;false;false;false;true;false;Non Seveso;false;DREAL NA;En fin d'exploitation;Enregistrement;https://www.georisques.gouv.fr/risques/installations/donnees/details/0005211258;LECLERC Blaye Distribution (ancien site);;LECLERC Blaye Distribution (ancien site);Cars;200023794;CC de Blaye
0005206747;CHEDIK Abdelkader;lieu-dit Coudurat;;;33920;33416;Saint-Girons-d'Aiguevives;;;422678;6456673;2154;-0.530191;45.153552;false;false;false;false;false;true;false;Non Seveso;false;DREAL NA;En fin d'exploitation;Autorisation;https://www.georisques.gouv.fr/risques/installations/donnees/details/0005206747;CHEDIK Abdelkader;;CHEDIK Abdelkader;Saint-Girons-d'Aiguevives;200023794;CC de Blaye
0003106032;Monsieur TANTILLO et Madame PETRAULT;86 bis route de Lilaire;;;33830;33042;Belin-Béliet;13;53026467000023;400189;6382881;2154;-0.771214;44.48054;false;false;false;false;false;false;false;;false;DREAL NA;;Non ICPE;https://www.georisques.gouv.fr/risques/installations/donnees/details/0003106032;Monsieur TANTILLO et Madame PETRAULT;;Monsieur TANTILLO et Madame PETRAULT;Belin-Béliet;243301405;CC du Val de l'Eyre
0005211664;PUBLISI Syndic;Résidence Parc de Capeyron;;;33700;33281;Mérignac;;89322383400019;408904;6421709;2154;-0.684525;44.83341;false;false;false;false;false;false;false;;false;DREAL NA;;Autres régimes;https://www.georisques.gouv.fr/risques/installations/donnees/details/0005211664;PUBLISI Syndic;;PUBLISI Syndic;Mérignac;243300316;Bordeaux Métropole
0005201415;METRO;109, Avenue des Pyrenees;Pont de la Maye;;33140;33550;Villenave-d'Ornon;;;418119;6413898;2154;-0.563589;44.766967;false;false;false;false;false;false;false;;false;DREAL NA;;Non ICPE;https://www.georisques.gouv.fr/risques/installations/donnees/details/0005201415;METRO;;METRO;Villenave-d'Ornon;243300316;Bordeaux Métropole
0003107059;INTERMARCHE SAINT ANDRE DISTRIBUTION;17 rue de la Fontaine;;;33240;33366;Saint-André-de-Cubzac;47;39476267800016;429860;6438916;2154;-0.429074;44.996673;false;false;false;false;false;false;false;;false;DREAL NA;;Autres régimes;https://www.georisques.gouv.fr/risques/installations/donnees/details/0003107059;INTERMARCHE SAINT ANDRE DISTRIBUTION;;INTERMARCHE SAINT ANDRE DISTRIBUTION;Saint-André-de-Cubzac;243301223;CC du Grand Cubzaguais
0053319859;EPLEFPA CHATEAU LA TOUR BLANCHE;Haut Bommes;DOMAINE DE LA TOUR BLANCHE;;33210;33060;Bommes;;19331424200018;433880;6388180;2154;-0.350795;44.541867;false;false;false;false;false;false;false;;false;DDPP 33;;Autres régimes;https://www.georisques.gouv.fr/risques/installations/donnees/details/0053319859;EPLEFPA CHATEAU LA TOUR BLANCHE;;EPLEFPA CHATEAU LA TOUR BLANCHE;Bommes;200043974;CC du Sud Gironde
0003103364;CUMA DE L'ENGRANNE;Lieu-dit Moulin de Scassefort;;;33420;33301;Rauzan;01;80932410600016;450550;6416445;2154;-0.155341;44.802296;false;false;false;false;false;true;false;Non Seveso;false;DREAL NA;En exploitation avec titre;Enregistrement;https://www.georisques.gouv.fr/risques/installations/donnees/details/0003103364;CUMA DE L'ENGRANNE;;CUMA DE L'ENGRANNE;Naujan-et-Postiac;243301454;CC Castillon/Pujols
0005207374;Mairie  -  Fours;les Gornettes;;;33390;33172;Fours;;;415064;6459352;2154;-0.628545;45.174542;false;false;false;false;false;true;false;Non Seveso;false;DREAL NA;En fin d'exploitation;Autorisation;https://www.georisques.gouv.fr/risques/installations/donnees/details/0005207374;Mairie  -  Fours;;Mairie  -  Fours;Fours;200023794;CC de Blaye
0005205688;ECOMICRO;18 Quai de Queyries;;;33000;33063;Bordeaux;;40995791700027;418512;6422189;2154;-0.563355;44.841696;false;false;false;false;false;false;false;;false;DREAL NA;;Non ICPE;https://www.georisques.gouv.fr/risques/installations/donnees/details/0005205688;ECOMICRO;Bordeaux;ECOMICRO — Bordeaux;Bordeaux;243300316;Bordeaux Métropole
0003101202;SCEA DES VIGNOBLES DESPUJOLS;Château de L EMIGRE;;;33720;33120;Cérons;01;43759542400015;435469;6397609;2154;-0.335823;44.627281;false;false;false;false;false;false;false;;false;DDPP 33;;Autres régimes;https://www.georisques.gouv.fr/risques/installations/donnees/details/0003101202;SCEA DES VIGNOBLES DESPUJOLS;;SCEA DES VIGNOBLES DESPUJOLS;Cérons;200069581;CC Convergence Garonne
0005210537;ENTREPRISE COURRIAN;Peysibot - La Brugue;;;33340;33177;Gaillan-en-Médoc;08;32734196200014;387707;6472981;2154;-0.985113;45.285248;false;false;false;true;false;false;false;Non Seveso;false;DREAL NA;En exploitation avec titre;Autorisation;https://www.georisques.gouv.fr/risques/installations/donnees/details/0005210537;ENTREPRISE COURRIAN;Gaillan-en-Médoc;ENTREPRISE COURRIAN — Gaillan-en-Médoc;Gaillan-en-Médoc;200069995;CC Médoc Coeur de Presqu'île
0005201163;SMICVAL -St Denis de Pile;8 route de la Pinière;;;33910;33393;Saint-Denis-de-Pile;93;88531095300017;451388;6438021;2154;-0.155654;44.996701;false;false;false;false;false;true;true;Non Seveso;true;DREAL NA;En exploitation avec titre;Autorisation;https://www.georisques.gouv.fr/risques/installations/donnees/details/0005201163;SMICVAL -St Denis de Pile;;SMICVAL -St Denis de Pile;Saint-Denis-de-Pile;200070092;CA du Libournais
0053325073;LES OURSONS DE PETIT PALAIS;117 ROUTE DE COUTRAS;;;33910;33393;Saint-Denis-de-Pile;;48936129500012;448602;6437053;2154;-0.190482;44.986985;false;false;false;false;false;false;false;;false;DDPP 33;;Autres régimes;https://www.georisques.gouv.fr/risques/installations/donnees/details/0053325073;LES OURSONS DE PETIT PALAIS;;LES OURSONS DE PETIT PALAIS;Saint-Denis-de-Pile;200070092;CA du Libournais
0053320845;SAS GONFRIER FRERES;CHATEAU DE MARSAN;;;33550;33241;Lestiac-sur-Garonne;01;33760846700011;432697;6405305;2154;-0.374882;44.695443;false;false;false;false;false;true;false;Non Seveso;false;DDPP 33;En exploitation avec titre;Enregistrement;https://www.georisques.gouv.fr/risques/installations/donnees/details/0053320845;SAS GONFRIER FRERES;;SAS GONFRIER FRERES;Lestiac-sur-Garonne;200069581;CC Convergence Garonne
0053326684;COTTREAU PASCAL;Giron;;;33920;33489;Saint-Vivien-de-Blaye;01;40288926500011;423848;6451457;2154;-0.512365;45.107103;false;false;false;false;false;false;false;;false;DDPP 33;;Autres régimes;https://www.georisques.gouv.fr/risques/installations/donnees/details/0053326684;COTTREAU PASCAL;;COTTREAU PASCAL;Saint-Vivien-de-Blaye;243301181;CC Latitude Nord Gironde
0100298212;CAMPING INTERNATIONAL DE BORDEAUX BRUGES;BOULEVARD JACQUES CHABAN DELMAS; -- ;;33520;33075;BRUGES;;50836299300034;415564;6426737;2154;-0.603247;44.881397;false;false;false;false;false;false;false;;false;DREAL NA;;Autres régimes;https://www.georisques.gouv.fr/risques/installations/donnees/details/0100298212;CAMPING INTERNATIONAL DE BORDEAUX BRUGES;;CAMPING INTERNATIONAL DE BORDEAUX BRUGES;Bruges;243300316;Bordeaux Métropole
0100127194;SAS MAUBRAC;Z I LA LANDE 12 AV DE L ESCART;;;33450;33433;SAINT-LOUBES;17;34367907200011;427423;6430365;2154;-0.455222;44.9188;false;false;false;false;false;false;false;;false;DREAL NA;;Autres régimes;https://www.georisques.gouv.fr/risques/installations/donnees/details/0100127194;SAS MAUBRAC;;SAS MAUBRAC;Saint-Loubès;243301249;CC Les Rives de la Laurence
0005213459;SCI COM;Rue de la Pérouse;;;33290;33056;Blanquefort;68;44817180100021;415226;6431926;2154;-0.610527;44.927928;false;false;false;false;false;true;false;Non Seveso;false;DREAL NA;En exploitation avec titre;Enregistrement;https://www.georisques.gouv.fr/risques/installations/donnees/details/0005213459;SCI COM;;SCI COM;Blanquefort;243300316;Bordeaux Métropole
0100302965;REGIE DE L'EAU BORDEAUX METROPOLE;353 Route de Toulouse;;;33140;33039;Villenave-d'Ornon;36;89513467400020;417893;6417299;2154;-0.568384;44.797463;false;false;false;false;false;false;false;;false;DREAL NA;;Non ICPE;https://www.georisques.gouv.fr/risques/installations/donnees/details/0100302965;REGIE DE L'EAU BORDEAUX METROPOLE;Villenave-d'Ornon;REGIE DE L'EAU BORDEAUX METROPOLE — Villenave-d'Ornon;Bègles;243300316;Bordeaux Métropole
0005208708;SUEZ Organique;Lieu dit Aiguillet;Lubec;;33980;33019;Audenge;38;34530688000864;385195;6411676;2154;-0.977739;44.732835;false;false;false;false;false;true;true;Non Seveso;true;DREAL NA;En exploitation avec titre;Autorisation;https://www.georisques.gouv.fr/risques/installations/donnees/details/0005208708;SUEZ Organique;Audenge;SUEZ Organique — Audenge;Audenge;243301504;CA du Bassin d'Arcachon Nord (COBAN)
0005205128;MALET - St Christoly de Blaye;;;;33920;33382;Saint-Christoly-de-Blaye;42;30269887300015;424337;6454050;2154;-0.507618;45.130623;false;false;false;false;false;true;false;Non Seveso;false;DREAL NA;En fin d'exploitation;Enregistrement;https://www.georisques.gouv.fr/risques/installations/donnees/details/0005205128;MALET;St Christoly de Blaye;MALET — St Christoly de Blaye;Saint-Christoly-de-Blaye;200023794;CC de Blaye
0005200719;SCI PRENDS Y GARDE;;;;33230;33138;Coutras;;;453998;6442995;2154;-0.125057;45.042385;false;false;false;false;false;true;false;Non Seveso;false;DREAL NA;En fin d'exploitation;Enregistrement;https://www.georisques.gouv.fr/risques/installations/donnees/details/0005200719;SCI PRENDS Y GARDE;;SCI PRENDS Y GARDE;Coutras;200070092;CA du Libournais
0005201135;KERWICH LANDRY;;;;33820;33374;Saint-Aubin-de-Blaye;;31725765700013;420761;6469078;2154;-0.561678;45.264361;false;false;false;false;false;true;false;Non Seveso;false;DREAL NA;En fin d'exploitation;Enregistrement;https://www.georisques.gouv.fr/risques/installations/donnees/details/0005201135;KERWICH LANDRY;;KERWICH LANDRY;Saint-Aubin-de-Blaye;243300811;CC de l'Estuaire
0005207042;BTVA;94 Route du Chenil;;;33570;33320;Petit-Palais-et-Cornemps;45;39846750600026;458883;6436541;2154;-0.059888;44.986041;false;false;false;false;false;true;false;Non Seveso;false;DREAL NA;En exploitation avec titre;Enregistrement;https://www.georisques.gouv.fr/risques/installations/donnees/details/0005207042;BTVA;;BTVA;Petit-Palais-et-Cornemps;200035533;CC du Grand Saint Emilionnais
0053326574;SOC CIVILE GRANDS CRUS REUNIS;Château La Tour de Bessan;Route d'Arsac;;33460;33268;Margaux-Cantenac;01;78195131400025;411209;6443493;2154;-0.668192;45.030297;false;false;false;false;false;false;false;;false;DDPP 33;;Autres régimes;https://www.georisques.gouv.fr/risques/installations/donnees/details/0053326574;SOC CIVILE GRANDS CRUS REUNIS;Margaux-Cantenac;SOC CIVILE GRANDS CRUS REUNIS — Margaux-Cantenac;Margaux-Cantenac;243301447;CC Médoc Estuaire
0053321060;VIGNOBLES DUBOIS ET FILS EARL;;CHATEAU LES BERTRANDS;;33860;33351;Reignac;01;39487003400011;424297;6464432;2154;-0.514001;45.223995;false;false;false;false;false;false;false;;false;DDPP 33;;Autres régimes;https://www.georisques.gouv.fr/risques/installations/donnees/details/0053321060;VIGNOBLES DUBOIS ET FILS EARL;;VIGNOBLES DUBOIS ET FILS EARL;Reignac;243300811;CC de l'Estuaire
0005201180;ARIANEGROUP SAS;"40 - Lieu-dit ""La Providence""";;;33480;33417;Sainte-Hélène;30;51903224700032;396478;6440171;2154;-0.852956;44.994106;false;false;false;false;false;true;true;Seveso seuil haut;false;DREAL NA;En exploitation avec titre;Autorisation;https://www.georisques.gouv.fr/risques/installations/donnees/details/0005201180;ARIANEGROUP SAS;Sainte-Hélène;ARIANEGROUP SAS — Sainte-Hélène;Sainte-Hélène;243301389;CC Médullienne
0005206811;ESSO SA;Place Jean Moulin;;;33500;33243;Libourne;;54201005300016;444172;6429608;2154;-0.242763;44.918384;false;false;false;false;false;false;false;;false;DREAL NA;;Non ICPE;https://www.georisques.gouv.fr/risques/installations/donnees/details/0005206811;ESSO SA;;ESSO SA;Libourne;200070092;CA du Libournais
0005200741;FILIATRE;36, rue Dubrana;;;33320;33162;Eysines;;;413024;6427393;2154;-0.635761;44.886249;false;false;false;false;false;true;false;Non Seveso;false;DREAL NA;En fin d'exploitation;Enregistrement;https://www.georisques.gouv.fr/risques/installations/donnees/details/0005200741;FILIATRE;;FILIATRE;Eysines;243300316;Bordeaux Métropole
0005211627;SIBA - Le Teich;lieu-dit « Les Quatre Paysans »;;;33470;33229;Le Teich;;;379289;6410809;2154;-1.051674;44.722338;false;false;false;false;false;true;false;Non Seveso;false;DREAL NA;En exploitation avec titre;Enregistrement;https://www.georisques.gouv.fr/risques/installations/donnees/details/0005211627;SIBA;Le Teich;SIBA — Le Teich;Lanton;243301504;CA du Bassin d'Arcachon Nord (COBAN)
0005213103;POQUE-BONNET Ketty;9 rue du Croustet;;;33700;33281;Mérignac;;;408904;6421709;2154;-0.684525;44.83341;false;false;false;false;false;false;false;;false;DDPP 33;;Autres régimes;https://www.georisques.gouv.fr/risques/installations/donnees/details/0005213103;POQUE-BONNET Ketty;;POQUE-BONNET Ketty;Mérignac;243300316;Bordeaux Métropole
0053320788;SARL PIERRE LURTON;LIEU DIT MARJOSSE;;;33420;33531;Tizac-de-Curton;01;42487644900010;443585;6418974;2154;-0.244659;44.822506;false;false;false;false;false;false;false;;false;DDPP 33;;Autres régimes;https://www.georisques.gouv.fr/risques/installations/donnees/details/0053320788;SARL PIERRE LURTON;;SARL PIERRE LURTON;Tizac-de-Curton;200070092;CA du Libournais
